,Postcode,Borough,Street,Latitude,Longitude,Coordinates,Clusters
0,01-355,Bemowo,os. Przyjaźń,52.2374,20.9164,"52.2374, 20.9164",9
1,01-362,Bemowo,pl. Kasztelański,52.2317,20.9159,"52.2317, 20.9159",11
2,01-483,Bemowo,ul. A. B. Dobrowolskiego,52.2577,20.8922,"52.2577, 20.8922",9
3,01-464,Bemowo,ul. A. Bożka,52.2424,20.916,"52.2424, 20.916",9
4,01-480,Bemowo,ul. A. Einsteina,52.2541,20.8921,"52.2541, 20.8921",9
5,01-473,Bemowo,ul. A. Kocjana,52.2508,20.8778,"52.2508, 20.8778",9
6,01-391,Bemowo,ul. A. Krzywoń,52.2279,20.9179,"52.2279, 20.9179",11
7,01-494,Bemowo,ul. A. Sołtana,52.2546,20.9331,"52.2546, 20.9331",23
8,01-318,Bemowo,ul. A. Świętochowskiego,52.2342,20.9011,"52.2342, 20.9011",11
9,01-497,Bemowo,ul. Afrodyty,52.2497,20.9097,"52.2497, 20.9097",9
10,01-491,Bemowo,ul. Akantu,52.2636,20.9054,"52.2636, 20.9054",9
11,01-493,Bemowo,ul. Andyjska,52.2529,20.9174,"52.2529, 20.9174",9
12,01-481,Bemowo,ul. Archimedesa,52.2553,20.8915,"52.2553, 20.8915",9
13,01-466,Bemowo,ul. Babimojska,52.2471,20.9185,"52.2471, 20.9185",9
14,01-305,Bemowo,ul. Batalionów Chłopskich,52.2306,20.8938,"52.2306, 20.8938",11
15,01-308,Bemowo,ul. Batalionów Chłopskich,52.2322,20.8935,"52.2322, 20.8935",11
16,01-307,Bemowo,ul. Batalionów Chłopskich,52.2304,20.8905,"52.2304, 20.8905",11
17,01-366,Bemowo,ul. Batalionu „Miotła”,52.2325,20.9202,"52.2325, 20.9202",11
18,01-487,Bemowo,ul. Bawełniana,52.2649,20.8993,"52.2649, 20.8993",9
19,01-461,Bemowo,ul. Bogatyńska,52.2433,20.9203,"52.2433, 20.9203",9
20,01-354,Bemowo,ul. Borowej Góry,52.2245,20.9171,"52.2245, 20.9171",11
21,01-384,Bemowo,ul. Brygadzistów,52.2242,20.9102,"52.2242, 20.9102",11
22,01-319,Bemowo,ul. Chrzanowska,52.2186,20.8988,"52.2186, 20.8988",11
23,01-472,Bemowo,ul. Cieplarniana,52.2509,20.8741,"52.2509, 20.8741",9
24,01-360,Bemowo,ul. Człuchowska,52.2288,20.9114,"52.2288, 20.9114",11
25,01-482,Bemowo,ul. D. Mendelejewa,52.257,20.8914,"52.257, 20.8914",9
26,01-490,Bemowo,ul. Dostępna,52.2614,20.904,"52.2614, 20.904",9
27,01-361,Bemowo,ul. Drogomilska,52.2313,20.9129,"52.2313, 20.9129",11
28,01-341,Bemowo,ul. Drzeworytników,52.2215,20.9038,"52.2215, 20.9038",11
29,01-385,Bemowo,ul. Drzeworytników,52.2258,20.906,"52.2258, 20.906",11
30,01-470,Bemowo,ul. Dywizjonu 303,52.2461,20.9041,"52.2461, 20.9041",11
31,01-376,Bemowo,ul. Dźwigowa,52.218,20.9148,"52.218, 20.9148",11
32,01-496,Bemowo,ul. F. Kawy,52.2625,20.9184,"52.2625, 20.9184",9
33,01-339,Bemowo,ul. Fortuny,52.2166,20.906,"52.2166, 20.906",11
34,01-347,Bemowo,ul. Gabriela,52.2209,20.9105,"52.2209, 20.9105",11
35,01-478,Bemowo,ul. gen. F. Kleeberga,52.2637,20.9042,"52.2637, 20.9042",9
36,01-315,Bemowo,ul. gen. M. C. Coopera,52.2317,20.8977,"52.2317, 20.8977",11
37,01-476,Bemowo,ul. gen. S. Kaliskiego,52.2551,20.8968,"52.2551, 20.8968",9
38,01-471,Bemowo,ul. gen. T. Pełczyńskiego,52.2422,20.9015,"52.2422, 20.9015",11
39,01-364,Bemowo,ul. Gimnazjalna,52.2316,20.9166,"52.2316, 20.9166",11
40,01-485,Bemowo,ul. Gołuchowska,52.2542,20.906999999999996,"52.2542, 20.906999999999996",9
41,01-460,Bemowo,ul. Górczewska,52.2406,20.9117,"52.2406, 20.9117",9
42,01-459,Bemowo,ul. Górczewska,52.2394,20.9129,"52.2394, 20.9129",9
43,01-488,Bemowo,ul. Grotowska,52.2653,20.8987,"52.2653, 20.8987",9
44,02-422,Bemowo,ul. J. I. Kraszewskiego,52.2108,20.8976,"52.2108, 20.8976",12
45,01-368,Bemowo,ul. J. Joyce'a,52.2317,20.9213,"52.2317, 20.9213",11
46,01-345,Bemowo,ul. J. Wybickiego,52.22,20.9063,"52.22, 20.9063",11
47,01-373,Bemowo,ul. Jana Olbrachta,52.2344,20.9197,"52.2344, 20.9197",11
48,01-317,Bemowo,ul. K. Irzykowskiego,52.231,20.9058,"52.231, 20.9058",11
49,01-313,Bemowo,ul. Karabeli,52.2298,20.9008,"52.2298, 20.9008",11
50,01-462,Bemowo,ul. Kołczana,52.244,20.9225,"52.244, 20.9225",9
51,01-321,Bemowo,ul. Kopalniana,52.2201,20.8941,"52.2201, 20.8941",11
52,01-365,Bemowo,ul. Kruszyńska,52.2318,20.9182,"52.2318, 20.9182",11
53,01-356,Bemowo,ul. Kryształowa,52.2314,20.9086,"52.2314, 20.9086",11
54,01-452,Bemowo,ul. Księcia Bolesława,52.2429,20.9409,"52.2429, 20.9409",23
55,01-934,Bemowo,ul. Księżycowa,52.2823,20.8981,"52.2823, 20.8981",18
56,01-314,Bemowo,ul. Lazurowa,52.2286,20.8962,"52.2286, 20.8962",11
57,01-479,Bemowo,ul. Lazurowa,52.2398,20.8962,"52.2398, 20.8962",11
58,01-474,Bemowo,ul. Lazurowa,52.2427,20.8973,"52.2427, 20.8973",11
59,01-343,Bemowo,ul. Legionowa,52.2186,20.9053,"52.2186, 20.9053",11
60,01-342,Bemowo,ul. Lustrzana,52.2206,20.9043,"52.2206, 20.9043",11
61,01-329,Bemowo,ul. Łęgi,52.214,20.886999999999997,"52.214, 20.886999999999997",12
62,01-492,Bemowo,ul. M. Sobczaka,52.2628,20.9022,"52.2628, 20.9022",9
63,01-469,Bemowo,ul. Marynin,52.2457,20.9241,"52.2457, 20.9241",9
64,01-352,Bemowo,ul. Miejska,52.2235,20.9084,"52.2235, 20.9084",11
65,01-390,Bemowo,ul. mjr. H. Sucharskiego,52.2271,20.910999999999998,"52.2271, 20.910999999999998",11
66,01-330,Bemowo,ul. Mory,52.2124,20.8741,"52.2124, 20.8741",12
67,01-357,Bemowo,ul. Muszlowa,52.2309,20.9108,"52.2309, 20.9108",11
68,01-328,Bemowo,ul. Na Wyraju,52.2217,20.8802,"52.2217, 20.8802",12
69,01-338,Bemowo,ul. Nowej Huty,52.2164,20.9026,"52.2164, 20.9026",11
70,01-359,Bemowo,ul. Okoliczna,52.2297,20.9124,"52.2297, 20.9124",11
71,01-309,Bemowo,ul. Okrętowa,52.2233,20.9035,"52.2233, 20.9035",11
72,01-475,Bemowo,ul. Oryszewska,52.2494,20.8779,"52.2494, 20.8779",9
73,01-351,Bemowo,ul. Owczarska,52.2236,20.9104,"52.2236, 20.9104",11
74,01-498,Bemowo,ul. P. Stellera,52.2637,20.9133,"52.2637, 20.9133",9
75,01-327,Bemowo,ul. Podgrodzie,52.2201,20.881999999999998,"52.2201, 20.881999999999998",12
76,01-378,Bemowo,ul. Połczyńska,52.2226,20.9231,"52.2226, 20.9231",11
77,01-302,Bemowo,ul. Połczyńska,52.2169,20.8958,"52.2169, 20.8958",11
78,01-303,Bemowo,ul. Połczyńska,52.2158,20.8865,"52.2158, 20.8865",12
79,01-304,Bemowo,ul. Połczyńska,52.2171,20.884,"52.2171, 20.884",12
80,01-377,Bemowo,ul. Połczyńska,52.2201,20.919,"52.2201, 20.919",11
81,01-337,Bemowo,ul. Połczyńska,52.2183,20.906999999999996,"52.2183, 20.906999999999996",11
82,01-336,Bemowo,ul. Połczyńska,52.2177,20.9077,"52.2177, 20.9077",11
83,01-301,Bemowo,ul. Połczyńska,52.2222,20.9047,"52.2222, 20.9047",11
84,01-728,Bemowo,ul. Powązkowska,52.262,20.9499,"52.262, 20.9499",19
85,01-381,Bemowo,ul. Powstańców Śląskich,52.2295,20.9163,"52.2295, 20.9163",11
86,03-381,Bemowo,ul. Powstańców Śląskich,52.2797,21.0065,"52.2797, 21.0065",29
87,01-386,Bemowo,ul. Reżyserska,52.2272,20.9073,"52.2272, 20.9073",11
88,01-388,Bemowo,ul. Rodzinna,52.2269,20.9074,"52.2269, 20.9074",11
89,01-340,Bemowo,ul. Rotundy,52.2176,20.9095,"52.2176, 20.9095",11
90,01-310,Bemowo,ul. Rozłogi,52.2243,20.9004,"52.2243, 20.9004",11
91,01-312,Bemowo,ul. Siemiatycka,52.2261,20.9034,"52.2261, 20.9034",11
92,01-353,Bemowo,ul. Słomiana,52.2241,20.9084,"52.2241, 20.9084",11
93,01-350,Bemowo,ul. Sternicza,52.2215,20.9073,"52.2215, 20.9073",11
94,01-383,Bemowo,ul. Sternicza,52.2233,20.9146,"52.2233, 20.9146",11
95,01-367,Bemowo,ul. Strąkowa,52.232,20.9188,"52.232, 20.9188",11
96,01-348,Bemowo,ul. Strzelców,52.2207,20.9112,"52.2207, 20.9112",11
97,01-382,Bemowo,ul. Szczotkarska,52.2222,20.9138,"52.2222, 20.9138",11
98,01-349,Bemowo,ul. Szczotkarska,52.223,20.9166,"52.223, 20.9166",11
99,01-320,Bemowo,ul. Szeligowska,52.2261,20.8874,"52.2261, 20.8874",11
100,01-389,Bemowo,ul. Świetlików,52.2277,20.9109,"52.2277, 20.9109",11
101,01-486,Bemowo,ul. Telefoniczna,52.2645,20.8998,"52.2645, 20.8998",9
102,01-346,Bemowo,ul. Tkaczy,52.2212,20.908,"52.2212, 20.908",11
103,01-468,Bemowo,ul. Wieśniacza,52.2456,20.9191,"52.2456, 20.9191",9
104,01-418,Bemowo,ul. Wrocławska,52.2473,20.9412,"52.2473, 20.9412",23
105,01-495,Bemowo,ul. Zachodzącego Słońca,52.2573,20.9142,"52.2573, 20.9142",9
106,03-144,Białołęka,pl. Światowida,52.3285,20.9459,"52.3285, 20.9459",15
107,03-173,Białołęka,ul. 15 Sierpnia,52.3261,20.9855,"52.3261, 20.9855",16
108,03-134,Białołęka,ul. A. Ciołkosza,52.3285,20.9465,"52.3285, 20.9465",15
109,03-176,Białołęka,ul. A. Fleminga,52.3202,20.9777,"52.3202, 20.9777",16
110,03-130,Białołęka,ul. A. Kamińskiego,52.3227,20.9603,"52.3227, 20.9603",15
111,03-193,Białołęka,ul. A. Kowalczyka,52.3064,20.9931,"52.3064, 20.9931",16
112,03-289,Białołęka,ul. A. Vivaldiego,52.33,21.0508,"52.33, 21.0508",28
113,03-149,Białołęka,ul. Aluzyjna,52.3463,20.9438,"52.3463, 20.9438",15
114,03-013,Białołęka,ul. Ambaras,52.3418,20.9995,"52.3418, 20.9995",17
115,03-106,Białołęka,ul. Anecińska,52.3289,20.9633,"52.3289, 20.9633",15
116,03-153,Białołęka,ul. Animuszu,52.3465,20.9551,"52.3465, 20.9551",15
117,03-236,Białołęka,ul. Annopol,52.3079,21.0169,"52.3079, 21.0169",29
118,03-009,Białołęka,ul. Arkony,52.3479,20.9971,"52.3479, 20.9971",17
119,03-276,Białołęka,ul. Artyleryjska,52.3006,21.0335,"52.3006, 21.0335",29
120,03-126,Białołęka,ul. Atutowa,52.3181,20.9598,"52.3181, 20.9598",15
121,03-253,Białołęka,ul. Białołęcka,52.3187,21.0311,"52.3187, 21.0311",28
122,03-251,Białołęka,ul. Białołęcka,52.2994,21.0284,"52.2994, 21.0284",29
123,03-156,Białołęka,ul. Bieszczadzka,52.3463,20.9735,"52.3463, 20.9735",17
124,03-044,Białołęka,ul. Bobrowa,52.3506,21.0332,"52.3506, 21.0332",28
125,03-279,Białołęka,ul. Bogoriów,52.3015,21.0399,"52.3015, 21.0399",29
126,03-026,Białołęka,ul. Bohaterów,52.3367,20.989,"52.3367, 20.989",17
127,03-007,Białołęka,ul. Bohaterów,52.3418,20.9947,"52.3418, 20.9947",17
128,03-257,Białołęka,ul. Bohuna,52.3151,21.0414,"52.3151, 21.0414",28
129,03-034,Białołęka,ul. Borecka,52.3279,21.0104,"52.3279, 21.0104",17
130,03-102,Białołęka,ul. Bramka,52.3299,20.9605,"52.3299, 20.9605",15
131,03-090,Białołęka,ul. Braniewska,52.358999999999995,20.9904,"52.358999999999995, 20.9904",17
132,03-046,Białołęka,ul. Bruszewska,52.3241,21.0177,"52.3241, 21.0177",28
133,03-256,Białołęka,ul. Brzeziny,52.331,21.0409,"52.331, 21.0409",28
134,03-075,Białołęka,ul. Brzezińska,52.3559,20.9769,"52.3559, 20.9769",17
135,03-082,Białołęka,ul. Brzozowy Zagajnik,52.3495,20.9823,"52.3495, 20.9823",17
136,03-135,Białołęka,ul. Ceglana,52.3353,20.9582,"52.3353, 20.9582",15
137,03-029,Białołęka,ul. Celtów,52.332,20.9918,"52.332, 20.9918",17
138,03-127,Białołęka,ul. Ch. Botewa,52.3195,20.9558,"52.3195, 20.9558",15
139,03-136,Białołęka,ul. Chęcińska,52.3342,20.9572,"52.3342, 20.9572",15
140,03-061,Białołęka,ul. Chlebowa,52.355,20.9704,"52.355, 20.9704",17
141,03-051,Białołęka,ul. Chlubna,52.3585,20.9623,"52.3585, 20.9623",17
142,03-037,Białołęka,ul. Cichy Zakątek,52.3396,21.0204,"52.3396, 21.0204",17
143,03-107,Białołęka,ul. Ciechanowska,52.3541,20.9369,"52.3541, 20.9369",15
144,03-017,Białołęka,ul. Cieślewskich,52.3321,21.0216,"52.3321, 21.0216",28
145,03-016,Białołęka,ul. Ciupagi,52.3354,21.0063,"52.3354, 21.0063",17
146,03-035,Białołęka,ul. Cudne Manowce,52.3435,21.0205,"52.3435, 21.0205",17
147,03-012,Białołęka,ul. Cytadeli,52.3429,20.998,"52.3429, 20.998",17
148,03-043,Białołęka,ul. Cytrusowa,52.3618,21.0423,"52.3618, 21.0423",28
149,03-054,Białołęka,ul. Czajki,52.361000000000004,20.9507,"52.361000000000004, 20.9507",15
150,03-110,Białołęka,ul. Czarnocińska,52.3283,20.9701,"52.3283, 20.9701",15
151,03-116,Białołęka,ul. Czarodzieja,52.3335,20.9655,"52.3335, 20.9655",15
152,03-159,Białołęka,ul. Czeremchowa,52.3425,20.961,"52.3425, 20.961",15
153,03-028,Białołęka,ul. Czołowa,52.3339,20.9908,"52.3339, 20.9908",17
154,03-230,Białołęka,ul. Daniszewska,52.3108,21.0185,"52.3108, 21.0185",29
155,03-259,Białołęka,ul. Danusi,52.3129,21.0298,"52.3129, 21.0298",28
156,03-196,Białołęka,ul. Delfina,52.2989,20.9832,"52.2989, 20.9832",16
157,03-142,Białołęka,ul. Dionizosa,52.3348,20.9525,"52.3348, 20.9525",15
158,03-255,Białołęka,ul. Dobka z Oleśnicy,52.3227,21.0442,"52.3227, 21.0442",28
159,03-108,Białołęka,ul. Dołowa,52.3271,20.9647,"52.3271, 20.9647",15
160,03-195,Białołęka,ul. Dorodna,52.3034,20.9837,"52.3034, 20.9837",16
161,03-109,Białołęka,ul. Drogowa,52.3299,20.9714,"52.3299, 20.9714",15
162,03-112,Białołęka,ul. Drożdżowa,52.3292,20.9734,"52.3292, 20.9734",15
163,03-138,Białołęka,ul. Dróżka,52.3318,20.9454,"52.3318, 20.9454",15
164,03-190,Białołęka,ul. Druciana,52.3096,20.9854,"52.3096, 20.9854",16
165,03-182,Białołęka,ul. Duninów,52.3194,20.9756,"52.3194, 20.9756",16
166,03-071,Białołęka,ul. Dwusieczna,52.353,20.9786,"52.353, 20.9786",17
167,03-011,Białołęka,ul. Dylewska,52.345,21.0089,"52.345, 21.0089",17
168,03-008,Białołęka,ul. Dynamiczna,52.3406,20.998,"52.3406, 20.998",17
169,03-147,Białołęka,ul. Dzikiej Kaczki,52.3404,20.9457,"52.3404, 20.9457",15
170,03-188,Białołęka,ul. E. Wittiga,52.3151,20.9651,"52.3151, 20.9651",15
171,03-183,Białołęka,ul. Ekspresowa,52.3139,20.98,"52.3139, 20.98",16
172,03-219,Białołęka,ul. Elektronowa,52.295,21.0033,"52.295, 21.0033",29
173,03-185,Białołęka,ul. Erazma z Zakroczymia,52.3129,20.9658,"52.3129, 20.9658",15
174,03-187,Białołęka,ul. F. Pancera,52.3197,20.9454,"52.3197, 20.9454",15
175,03-197,Białołęka,ul. Familijna,52.3056,20.980999999999998,"52.3056, 20.980999999999998",16
176,03-160,Białołęka,ul. Fletniowa,52.3425,20.9779,"52.3425, 20.9779",17
177,03-166,Białołęka,ul. Fortel,52.3282,20.9798,"52.3282, 20.9798",16
178,03-133,Białołęka,ul. gen. M. Štefánika,52.323,20.9407,"52.323, 20.9407",15
179,03-290,Białołęka,ul. Geodezyjna,52.3183,21.0738,"52.3183, 21.0738",30
180,03-113,Białołęka,ul. Gerberowa,52.3496,20.9329,"52.3496, 20.9329",15
181,03-287,Białołęka,ul. Głębocka,52.3248,21.0666,"52.3248, 21.0666",30
182,03-194,Białołęka,ul. Gołdapska,52.3006,20.9845,"52.3006, 20.9845",16
183,03-154,Białołęka,ul. Grudowska,52.3464,20.9698,"52.3464, 20.9698",17
184,03-266,Białołęka,ul. Gryfitów,52.3042,21.0349,"52.3042, 21.0349",29
185,03-141,Białołęka,ul. Grzymalitów,52.3371,20.9385,"52.3371, 20.9385",15
186,03-139,Białołęka,ul. H. Ordonówny,52.3323,20.9508,"52.3323, 20.9508",15
187,03-079,Białołęka,ul. Henrykowska,52.3559,20.9812,"52.3559, 20.9812",17
188,03-192,Białołęka,ul. Huczna,52.3074,20.9873,"52.3074, 20.9873",16
189,03-237,Białołęka,ul. Inowłodzka,52.2993,21.0182,"52.2993, 21.0182",29
190,03-004,Białołęka,ul. Insurekcji,52.3485,20.9938,"52.3485, 20.9938",17
191,03-002,Białołęka,ul. J. Kukuczki,52.3508,21.0228,"52.3508, 21.0228",28
192,03-158,Białołęka,ul. J. Mehoffera,52.343999999999994,20.9731,"52.343999999999994, 20.9731",17
193,03-081,Białołęka,ul. J. Mehoffera,52.3533,20.9895,"52.3533, 20.9895",17
194,03-131,Białołęka,ul. J. Mehoffera,52.3292,20.9541,"52.3292, 20.9541",15
195,03-118,Białołęka,ul. J. Mehoffera,52.3364,20.9636,"52.3364, 20.9636",15
196,03-117,Białołęka,ul. J. Żiżki,52.3363,20.9634,"52.3363, 20.9634",15
197,03-033,Białołęka,ul. Jeżowa,52.3257,21.0066,"52.3257, 21.0066",17
198,03-161,Białołęka,ul. K. Kiersnowskiego,52.3425,20.9768,"52.3425, 20.9768",17
199,03-181,Białołęka,ul. K. Pułaskiego,52.323,20.9815,"52.323, 20.9815",16
200,03-180,Białołęka,ul. K. Szałasa,52.3208,20.975,"52.3208, 20.975",16
201,03-125,Białołęka,ul. Kaflowa,52.3247,20.9604,"52.3247, 20.9604",15
202,03-105,Białołęka,ul. Kalendarzowa,52.3273,20.9658,"52.3273, 20.9658",15
203,03-162,Białołęka,ul. Karnicka,52.3398,20.9802,"52.3398, 20.9802",17
204,03-001,Białołęka,ul. Kazuńska,52.3431,20.9862,"52.3431, 20.9862",17
205,03-059,Białołęka,ul. Kibiców,52.3571,20.9652,"52.3571, 20.9652",17
206,03-115,Białołęka,ul. Klasyków,52.3335,20.9702,"52.3335, 20.9702",15
207,03-163,Białołęka,ul. Klasyków,52.3335,20.9824,"52.3335, 20.9824",16
208,03-050,Białołęka,ul. Kłosowa,52.3576,20.9752,"52.3576, 20.9752",17
209,03-179,Białołęka,ul. Kobierzycka,52.3218,20.98,"52.3218, 20.98",16
210,03-171,Białołęka,ul. Kołacińska,52.3231,20.9772,"52.3231, 20.9772",16
211,00-716,Białołęka,ul. Konwaliowa,52.2131,21.0639,"52.2131, 21.0639",40
212,03-274,Białołęka,ul. Kopijników,52.3033,21.0419,"52.3033, 21.0419",29
213,03-114,Białołęka,ul. Krokwi,52.3313,20.975,"52.3313, 20.975",15
214,03-272,Białołęka,ul. Kuszników,52.3032,21.037,"52.3032, 21.037",29
215,03-030,Białołęka,ul. Lemiesz,52.3293,20.995,"52.3293, 20.995",17
216,03-299,Białołęka,ul. Lewandów,52.3227,21.0744,"52.3227, 21.0744",30
217,03-085,Białołęka,ul. Lidzbarska,52.3553,20.9872,"52.3553, 20.9872",17
218,03-055,Białołęka,ul. Lubczyka,52.3538,20.9675,"52.3538, 20.9675",17
219,03-063,Białołęka,ul. Ławnicza,52.356,20.9707,"52.356, 20.9707",17
220,03-089,Białołęka,ul. Łazanowicka,52.3588,20.9898,"52.3588, 20.9898",17
221,03-233,Białołęka,ul. M. Faradaya,52.3073,21.0151,"52.3073, 21.0151",29
222,03-178,Białołęka,ul. M. Kątskiego,52.3202,20.9847,"52.3202, 20.9847",16
223,03-146,Białołęka,ul. M. Trąby,52.3438,20.9411,"52.3438, 20.9411",15
224,03-020,Białołęka,ul. Majorki,52.3372,20.9984,"52.3372, 20.9984",17
225,03-174,Białołęka,ul. Marcelińska,52.3156,20.9888,"52.3156, 20.9888",16
226,03-145,Białołęka,ul. Marcina z Wrocimowic,52.3432,20.9381,"52.3432, 20.9381",15
227,03-053,Białołęka,ul. Marmurowa,52.3633,20.9476,"52.3633, 20.9476",15
228,03-228,Białołęka,ul. Marywilska,52.3051,21.0101,"52.3051, 21.0101",29
229,03-042,Białołęka,ul. Marywilska,52.3189,20.9997,"52.3189, 20.9997",16
230,03-015,Białołęka,ul. Mazurska,52.3393,21.0002,"52.3393, 21.0002",17
231,03-041,Białołęka,ul. Miętowa,52.3164,20.9986,"52.3164, 20.9986",16
232,03-260,Białołęka,ul. Mikołaja z Długolasu,52.318000000000005,21.0255,"52.318000000000005, 21.0255",28
233,03-216,Białołęka,ul. Modlińska,52.2935,21.0005,"52.2935, 21.0005",29
234,03-186,Białołęka,ul. Modlińska,52.3155,20.9747,"52.3155, 20.9747",16
235,03-170,Białołęka,ul. Modlińska,52.3169,20.976,"52.3169, 20.976",16
236,03-199,Białołęka,ul. Modlińska,52.3078,20.9819,"52.3078, 20.9819",16
237,03-119,Białołęka,ul. Modlińska,52.32899999999999,20.9675,"52.32899999999999, 20.9675",15
238,03-122,Białołęka,ul. Modlińska,52.3225,20.9698,"52.3225, 20.9698",16
239,03-120,Białołęka,ul. Modlińska,52.3288,20.9662,"52.3288, 20.9662",15
240,03-152,Białołęka,ul. Modlińska,52.3455,20.9522,"52.3455, 20.9522",15
241,03-151,Białołęka,ul. Modlińska,52.3449,20.9498,"52.3449, 20.9498",15
242,03-198,Białołęka,ul. Modlińska,52.3051,20.9947,"52.3051, 20.9947",16
243,03-019,Białołęka,ul. Morwowa,52.3306,21.0025,"52.3306, 21.0025",17
244,03-092,Białołęka,ul. Na Przełaj,52.3586,20.9857,"52.3586, 20.9857",17
245,03-137,Białołęka,ul. Oczary,52.3315,20.9492,"52.3315, 20.9492",15
246,03-140,Białołęka,ul. Odkryta,52.333,20.9365,"52.333, 20.9365",15
247,03-231,Białołęka,ul. Odlewnicza,52.3047,21.0138,"52.3047, 21.0138",29
248,03-264,Białołęka,ul. Ojca Aniceta,52.3055,21.0381,"52.3055, 21.0381",29
249,03-104,Białołęka,ul. Okienko,52.3314,20.9628,"52.3314, 20.9628",15
250,03-036,Białołęka,ul. Operowa,52.3327,21.0011,"52.3327, 21.0011",17
251,03-018,Białołęka,ul. Ornecka,52.3436,21.013,"52.3436, 21.013",17
252,03-143,Białołęka,ul. Osuchowska,52.3327,20.9566,"52.3327, 20.9566",15
253,03-262,Białołęka,ul. P. Włodkowica,52.308,21.035,"52.308, 21.035",29
254,03-155,Białołęka,ul. Parcelacyjna,52.3475,20.9739,"52.3475, 20.9739",17
255,03-238,Białołęka,ul. Pisankowa,52.2973,21.019000000000002,"52.2973, 21.019000000000002",29
256,03-074,Białołęka,ul. Piwoniowa,52.3553,20.9749,"52.3553, 20.9749",17
257,03-191,Białołęka,ul. Płochocińska,52.3119,20.9906,"52.3119, 20.9906",16
258,03-184,Białołęka,ul. Płużnicka,52.3122,20.9747,"52.3122, 20.9747",16
259,03-157,Białołęka,ul. Podgórna,52.3422,20.9756,"52.3422, 20.9756",17
260,03-111,Białołęka,ul. Podróżnicza,52.3285,20.9759,"52.3285, 20.9759",15
261,03-165,Białołęka,ul. Podróżnicza,52.3297,20.9795,"52.3297, 20.9795",16
262,03-003,Białołęka,ul. Polnych Kwiatów,52.3421,20.9843,"52.3421, 20.9843",17
263,03-069,Białołęka,ul. Polnych Kwiatów,52.3493,20.9801,"52.3493, 20.9801",17
264,03-101,Białołęka,ul. Pomorska,52.3291,20.9613,"52.3291, 20.9613",15
265,03-103,Białołęka,ul. Przemian,52.3305,20.961,"52.3305, 20.961",15
266,03-022,Białołęka,ul. Przeździecka,52.3386,20.9913,"52.3386, 20.9913",17
267,03-083,Białołęka,ul. Przytulna,52.3559,20.9843,"52.3559, 20.9843",17
268,03-021,Białołęka,ul. Sadkowska,52.3383,20.9959,"52.3383, 20.9959",17
269,03-168,Białołęka,ul. Sąsiedzka,52.3236,20.9756,"52.3236, 20.9756",16
270,03-025,Białołęka,ul. Sianokosów,52.338,20.985,"52.338, 20.985",17
271,03-032,Białołęka,ul. Smugowa,52.3252,21.0057,"52.3252, 21.0057",17
272,03-167,Białołęka,ul. Szałwiowa,52.325,20.9839,"52.325, 20.9839",16
273,03-077,Białołęka,ul. Szamotulska,52.3549,20.9803,"52.3549, 20.9803",17
274,03-164,Białołęka,ul. Szynowa,52.3308,20.9861,"52.3308, 20.9861",16
275,03-088,Białołęka,ul. Ślepa,52.3583,20.9911,"52.3583, 20.9911",17
276,03-128,Białołęka,ul. Świderska,52.3181,20.9467,"52.3181, 20.9467",15
277,03-265,Białołęka,ul. Toporczyków,52.3047,21.0339,"52.3047, 21.0339",29
278,03-226,Białołęka,ul. Toruńska,52.298,21.0312,"52.298, 21.0312",29
279,03-093,Białołęka,ul. Wadowicka,52.358999999999995,20.9825,"52.358999999999995, 20.9825",17
280,03-024,Białołęka,ul. Wałuszewska,52.3377,20.9859,"52.3377, 20.9859",17
281,03-005,Białołęka,ul. Wałuszewska,52.3404,20.9885,"52.3404, 20.9885",17
282,03-064,Białołęka,ul. Wąska,52.3557,20.9707,"52.3557, 20.9707",17
283,03-244,Białołęka,ul. Wenecka,52.2977,21.0197,"52.2977, 21.0197",29
284,03-172,Białołęka,ul. Weteranów,52.3226,20.9831,"52.3226, 20.9831",16
285,03-087,Białołęka,ul. Widna,52.357,20.9886,"52.357, 20.9886",17
286,03-062,Białołęka,ul. Wieliszewska,52.356,20.9696,"52.356, 20.9696",17
287,03-031,Białołęka,ul. Wyspiarska,52.3181,20.9968,"52.3181, 20.9968",16
288,03-076,Białołęka,ul. Zagrodecka,52.3569,20.9785,"52.3569, 20.9785",17
289,03-068,Białołęka,ul. Zawiślańska,52.3538,20.9735,"52.3538, 20.9735",17
290,01-783,Bielany,al. Armii Krajowej,52.2787,20.9753,"52.2787, 20.9753",21
291,01-695,Bielany,al. Słowiańska,52.2767,20.9658,"52.2767, 20.9658",19
292,01-840,Bielany,al. W. Reymonta,52.2767,20.9371,"52.2767, 20.9371",20
293,01-842,Bielany,al. W. Reymonta,52.2771,20.9384,"52.2771, 20.9384",20
294,01-829,Bielany,al. Zjednoczenia,52.2799,20.9488,"52.2799, 20.9488",20
295,01-838,Bielany,al. Zjednoczenia,52.283,20.9526,"52.283, 20.9526",19
296,01-830,Bielany,al. Zjednoczenia,52.2801,20.9499,"52.2801, 20.9499",20
297,01-801,Bielany,al. Zjednoczenia,52.2825,20.9531,"52.2825, 20.9531",19
298,01-834,Bielany,pl. Konfederacji,52.28,20.9469,"52.28, 20.9469",20
299,01-685,Bielany,ul. A. Bohdziewicza,52.2814,20.969,"52.2814, 20.969",19
300,01-912,Bielany,ul. A. Czechowa,52.2812,20.9339,"52.2812, 20.9339",20
301,01-835,Bielany,ul. A. Fontany,52.2762,20.9492,"52.2762, 20.9492",20
302,01-885,Bielany,ul. A. Fontany,52.2789,20.951,"52.2789, 20.951",19
303,01-853,Bielany,ul. A. Jarzębskiego,52.2734,20.9435,"52.2734, 20.9435",20
304,01-873,Bielany,ul. A. Magiera,52.2713,20.9525,"52.2713, 20.9525",19
305,01-856,Bielany,ul. A. Magiera,52.2726,20.9482,"52.2726, 20.9482",19
306,01-944,Bielany,ul. A. Parola,52.2924,20.9341,"52.2924, 20.9341",20
307,01-972,Bielany,ul. Abecadło,52.3089,20.9329,"52.3089, 20.9329",18
308,01-937,Bielany,ul. Akcent,52.2953,20.8827,"52.2953, 20.8827",18
309,01-989,Bielany,ul. Anny Jagiellonki,52.3078,20.9167,"52.3078, 20.9167",18
310,01-962,Bielany,ul. Antyczna,52.2887,20.9376,"52.2887, 20.9376",20
311,01-981,Bielany,ul. Arrasowa,52.3104,20.9224,"52.3104, 20.9224",18
312,01-904,Bielany,ul. Aspekt,52.2751,20.9328,"52.2751, 20.9328",20
313,01-927,Bielany,ul. B. Głowackiego,52.2722,20.9191,"52.2722, 20.9191",20
314,01-870,Bielany,ul. B. Leśmiana,52.2787,20.9586,"52.2787, 20.9586",19
315,01-818,Bielany,ul. B. Podczaszyńskiego,52.277,20.9538,"52.277, 20.9538",19
316,01-866,Bielany,ul. B. Podczaszyńskiego,52.2796,20.9562,"52.2796, 20.9562",19
317,01-867,Bielany,ul. B. Podczaszyńskiego,52.2797,20.9574,"52.2797, 20.9574",19
318,01-862,Bielany,ul. B. Podczaszyńskiego,52.2775,20.9549,"52.2775, 20.9549",19
319,01-682,Bielany,ul. B. Schulza,52.2839,20.9699,"52.2839, 20.9699",19
320,01-806,Bielany,ul. B. Zuga,52.2812,20.9544,"52.2812, 20.9544",19
321,01-811,Bielany,ul. B. Zuga,52.2838,20.951,"52.2838, 20.951",19
322,01-804,Bielany,ul. Babicka,52.2824,20.9543,"52.2824, 20.9543",19
323,01-807,Bielany,ul. Barcicka,52.2797,20.9558,"52.2797, 20.9558",19
324,01-839,Bielany,ul. Barcicka,52.2812,20.9527,"52.2812, 20.9527",19
325,01-991,Bielany,ul. Biograficzna,52.303999999999995,20.9315,"52.303999999999995, 20.9315",18
326,01-929,Bielany,ul. Brązownicza,52.2724,20.9229,"52.2724, 20.9229",20
327,01-697,Bielany,ul. Brochowska,52.2787,20.9648,"52.2787, 20.9648",19
328,01-939,Bielany,ul. Burleska,52.2934,20.9001,"52.2934, 20.9001",18
329,01-913,Bielany,ul. C. Goldoniego,52.2852,20.9341,"52.2852, 20.9341",20
330,01-803,Bielany,ul. Cegłowska,52.2819,20.9563,"52.2819, 20.9563",19
331,01-809,Bielany,ul. Cegłowska,52.2852,20.9531,"52.2852, 20.9531",19
332,01-910,Bielany,ul. Cienka,52.2851,20.9178,"52.2851, 20.9178",20
333,01-678,Bielany,ul. Cząstkowska,52.2813,20.9679,"52.2813, 20.9679",19
334,01-976,Bielany,ul. Czyżyka,52.3112,20.9141,"52.3112, 20.9141",18
335,01-983,Bielany,ul. Daglezji,52.3101,20.9207,"52.3101, 20.9207",18
336,01-987,Bielany,ul. Dankowicka,52.309,20.9152,"52.309, 20.9152",18
337,01-914,Bielany,ul. Dantego,52.2844,20.9362,"52.2844, 20.9362",20
338,01-815,Bielany,ul. Dewajtis,52.2958,20.9605,"52.2958, 20.9605",19
339,01-947,Bielany,ul. Dorycka,52.2967,20.9395,"52.2967, 20.9395",20
340,01-964,Bielany,ul. Dorycka,52.2965,20.9399,"52.2965, 20.9399",20
341,01-985,Bielany,ul. Dzierżoniowska,52.3085,20.9233,"52.3085, 20.9233",18
342,01-935,Bielany,ul. Dziewierza,52.2976,20.8812,"52.2976, 20.8812",18
343,01-970,Bielany,ul. Dziwożony,52.3225,20.9175,"52.3225, 20.9175",18
344,01-822,Bielany,ul. E. Schroegera,52.2784,20.9519,"52.2784, 20.9519",19
345,01-828,Bielany,ul. E. Schroegera,52.2803,20.9445,"52.2803, 20.9445",20
346,01-845,Bielany,ul. E. Schroegera,52.281000000000006,20.9419,"52.281000000000006, 20.9419",20
347,01-684,Bielany,ul. E. Stachury,52.2828,20.9717,"52.2828, 20.9717",19
348,01-990,Bielany,ul. Encyklopedyczna,52.3042,20.9285,"52.3042, 20.9285",18
349,01-923,Bielany,ul. Esej,52.2785,20.916999999999998,"52.2785, 20.916999999999998",20
350,01-932,Bielany,ul. Estrady,52.2996,20.8814,"52.2996, 20.8814",18
351,01-971,Bielany,ul. Farysa,52.3064,20.9375,"52.3064, 20.9375",18
352,01-905,Bielany,ul. Fortowa,52.2757,20.9352,"52.2757, 20.9352",20
353,01-833,Bielany,ul. G. Daniłowskiego,52.2773,20.945999999999998,"52.2773, 20.945999999999998",20
354,01-703,Bielany,ul. Gąbińska,52.2716,20.9599,"52.2716, 20.9599",19
355,01-691,Bielany,ul. Gdańska,52.2787,20.9678,"52.2787, 20.9678",19
356,01-633,Bielany,ul. Gdańska,52.2767,20.97,"52.2767, 20.97",19
357,01-808,Bielany,ul. Grębałowska,52.2839,20.9524,"52.2839, 20.9524",19
358,01-651,Bielany,ul. Gwiaździsta,52.2823,20.9825,"52.2823, 20.9825",21
359,01-680,Bielany,ul. Gwiaździsta,52.288000000000004,20.9811,"52.288000000000004, 20.9811",19
360,01-917,Bielany,ul. H. Balzaka,52.2817,20.9305,"52.2817, 20.9305",20
361,01-911,Bielany,ul. H. Ch. Andersena,52.2802,20.9363,"52.2802, 20.9363",20
362,01-893,Bielany,ul. H. Ch. Andersena,52.283,20.9384,"52.283, 20.9384",20
363,01-821,Bielany,ul. Hajoty,52.278,20.953000000000003,"52.278, 20.953000000000003",19
364,01-938,Bielany,ul. Herbowa,52.3035,20.9078,"52.3035, 20.9078",18
365,01-988,Bielany,ul. Humanistów,52.3071,20.9202,"52.3071, 20.9202",18
366,01-992,Bielany,ul. Improwizacji,52.3025,20.9271,"52.3025, 20.9271",18
367,01-922,Bielany,ul. J. Conrada,52.2745,20.9261,"52.2745, 20.9261",20
368,01-823,Bielany,ul. J. Kasprowicza,52.2835,20.9448,"52.2835, 20.9448",20
369,02-823,Bielany,ul. J. Kasprowicza,52.1641,20.9908,"52.1641, 20.9908",44
370,01-949,Bielany,ul. J. Kasprowicza,52.2889,20.9341,"52.2889, 20.9341",20
371,01-871,Bielany,ul. J. Kasprowicza,52.2809,20.9521,"52.2809, 20.9521",19
372,01-859,Bielany,ul. J. Kasprowicza,52.2778,20.956999999999997,"52.2778, 20.956999999999997",19
373,01-817,Bielany,ul. J. Kasprowicza,52.2794,20.9538,"52.2794, 20.9538",19
374,01-836,Bielany,ul. J. Kasprowicza,52.2819,20.9483,"52.2819, 20.9483",20
375,01-864,Bielany,ul. J. Kochanowskiego,52.2677,20.9473,"52.2677, 20.9473",19
376,01-699,Bielany,ul. J. Parandowskiego,52.2819,20.9648,"52.2819, 20.9648",19
377,01-690,Bielany,ul. J. Słowackiego,52.2733,20.9686,"52.2733, 20.9686",19
378,01-975,Bielany,ul. Jamki,52.31100000000001,20.9134,"52.31100000000001, 20.9134",18
379,01-843,Bielany,ul. K. Grodeckiego,52.283,20.9426,"52.283, 20.9426",20
380,01-860,Bielany,ul. K. Makuszyńskiego,52.2767,20.9571,"52.2767, 20.9571",19
381,01-687,Bielany,ul. K. Wierzyńskiego,52.2807,20.9672,"52.2807, 20.9672",19
382,01-942,Bielany,ul. Kabaretowa,52.2957,20.9092,"52.2957, 20.9092",18
383,01-810,Bielany,ul. Karska,52.2842,20.9513,"52.2842, 20.9513",19
384,01-694,Bielany,ul. Kaskadowa,52.2761,20.9696,"52.2761, 20.9696",19
385,01-707,Bielany,ul. Kiełpińska,52.2724,20.9622,"52.2724, 20.9622",19
386,01-851,Bielany,ul. Kleczewska,52.2763,20.943,"52.2763, 20.943",20
387,01-826,Bielany,ul. Kleczewska,52.2808,20.9452,"52.2808, 20.9452",20
388,01-692,Bielany,ul. Kolektorska,52.2775,20.9671,"52.2775, 20.9671",19
389,01-805,Bielany,ul. Krotoszyńska,52.2808,20.956,"52.2808, 20.956",19
390,01-986,Bielany,ul. Królowej Jadwigi,52.3078,20.9201,"52.3078, 20.9201",18
391,01-926,Bielany,ul. Kwitnąca,52.2759,20.921999999999997,"52.2759, 20.921999999999997",20
392,01-858,Bielany,ul. L. Rudnickiego,52.2662,20.9464,"52.2662, 20.9464",19
393,01-850,Bielany,ul. L. Rydla,52.2754,20.9439,"52.2754, 20.9439",20
394,01-884,Bielany,ul. L. Staffa,52.2747,20.9525,"52.2747, 20.9525",19
395,01-891,Bielany,ul. L. Staffa,52.2738,20.9602,"52.2738, 20.9602",19
396,01-820,Bielany,ul. Lisowska,52.2784,20.9516,"52.2784, 20.9516",19
397,01-903,Bielany,ul. M. Dąbrowskiej,52.2735,20.9317,"52.2735, 20.9317",20
398,01-689,Bielany,ul. M. Hłaski,52.2783,20.9707,"52.2783, 20.9707",19
399,01-863,Bielany,ul. M. Pawlikowskiej-Jasnorzewskiej,52.2774,20.9563,"52.2774, 20.9563",19
400,01-670,Bielany,ul. Marii Kazimiery,52.2873,20.9749,"52.2873, 20.9749",19
401,01-994,Bielany,ul. Marii Ludwiki Gonzagi,52.3096,20.921999999999997,"52.3096, 20.921999999999997",18
402,01-869,Bielany,ul. Marymoncka,52.2776,20.9624,"52.2776, 20.9624",19
403,01-813,Bielany,ul. Marymoncka,52.2848,20.9567,"52.2848, 20.9567",19
404,01-946,Bielany,ul. Marymoncka,52.2949,20.9444,"52.2949, 20.9444",20
405,01-868,Bielany,ul. Marymoncka,52.2795,20.9592,"52.2795, 20.9592",19
406,01-977,Bielany,ul. Marymoncka,52.2988,20.9425,"52.2988, 20.9425",20
407,01-802,Bielany,ul. Marymoncka,52.2822,20.9569,"52.2822, 20.9569",19
408,01-925,Bielany,ul. Maszewska,52.2752,20.9135,"52.2752, 20.9135",20
409,01-968,Bielany,ul. Muzealna,52.3069,20.9347,"52.3069, 20.9347",18
410,01-702,Bielany,ul. Ogólna,52.2715,20.9626,"52.2715, 20.9626",19
411,01-696,Bielany,ul. Opatowska,52.2784,20.9647,"52.2784, 20.9647",19
412,01-940,Bielany,ul. Opłotek,52.2959,20.9004,"52.2959, 20.9004",18
413,01-928,Bielany,ul. Osikowa,52.2732,20.9201,"52.2732, 20.9201",20
414,01-993,Bielany,ul. Ostaszewska,52.3064,20.9263,"52.3064, 20.9263",18
415,01-973,Bielany,ul. Papirusów,52.3094,20.9303,"52.3094, 20.9303",18
416,01-683,Bielany,ul. Pelplińska,52.2817,20.9702,"52.2817, 20.9702",19
417,01-688,Bielany,ul. Pęcicka,52.2797,20.9694,"52.2797, 20.9694",19
418,01-852,Bielany,ul. Płatnicza,52.2765,20.9445,"52.2765, 20.9445",20
419,01-827,Bielany,ul. Płatnicza,52.2812,20.9471,"52.2812, 20.9471",20
420,01-832,Bielany,ul. Płatnicza,52.2787,20.9453,"52.2787, 20.9453",20
421,01-875,Bielany,ul. płk. M. Niedzielskiego „Żywiciela”,52.2686,20.9386,"52.2686, 20.9386",20
422,01-673,Bielany,ul. Podleśna,52.2843,20.9676,"52.2843, 20.9676",19
423,01-921,Bielany,ul. Popiela,52.2841,20.9174,"52.2841, 20.9174",20
424,01-966,Bielany,ul. Prozy,52.306000000000004,20.9412,"52.306000000000004, 20.9412",18
425,01-960,Bielany,ul. Przy Agorze,52.293,20.9403,"52.293, 20.9403",20
426,01-930,Bielany,ul. Przy Agorze,52.2907,20.9358,"52.2907, 20.9358",20
427,01-969,Bielany,ul. Pułkowa,52.3056,20.9345,"52.3056, 20.9345",18
428,01-681,Bielany,ul. Raduńska,52.281000000000006,20.9717,"52.281000000000006, 20.9717",19
429,01-924,Bielany,ul. Rodziny Połanieckich,52.2765,20.9135,"52.2765, 20.9135",20
430,01-954,Bielany,ul. S. B. Lindego,52.2889,20.9466,"52.2889, 20.9466",20
431,01-953,Bielany,ul. S. B. Lindego,52.2887,20.9445,"52.2887, 20.9445",20
432,01-952,Bielany,ul. S. B. Lindego,52.2874,20.9429,"52.2874, 20.9429",20
433,01-849,Bielany,ul. S. Przybyszewskiego,52.2763,20.9416,"52.2763, 20.9416",20
434,01-824,Bielany,ul. S. Przybyszewskiego,52.2803,20.9434,"52.2803, 20.9434",20
435,01-844,Bielany,ul. S. Przybyszewskiego,52.2807,20.941999999999997,"52.2807, 20.941999999999997",20
436,01-887,Bielany,ul. S. Żeromskiego,52.2756,20.9578,"52.2756, 20.9578",19
437,01-819,Bielany,ul. S. Żeromskiego,52.2766,20.9522,"52.2766, 20.9522",19
438,01-831,Bielany,ul. S. Żeromskiego,52.2773,20.9471,"52.2773, 20.9471",20
439,01-882,Bielany,ul. S. Żeromskiego,52.2768,20.9473,"52.2768, 20.9473",20
440,01-861,Bielany,ul. S. Żeromskiego,52.2762,20.9562,"52.2762, 20.9562",19
441,01-825,Bielany,ul. S. Żeromskiego,52.2777,20.9428,"52.2777, 20.9428",20
442,01-846,Bielany,ul. S. Żeromskiego,52.2781,20.9411,"52.2781, 20.9411",20
443,01-980,Bielany,ul. Samogłoska,52.3112,20.9203,"52.3112, 20.9203",18
444,01-848,Bielany,ul. Skalbmierska,52.2822,20.9434,"52.2822, 20.9434",20
445,01-708,Bielany,ul. Słodowiec,52.273999999999994,20.9627,"52.273999999999994, 20.9627",19
446,01-909,Bielany,ul. Sokratesa,52.2844,20.9276,"52.2844, 20.9276",20
447,01-812,Bielany,ul. Szaflarska,52.2832,20.95,"52.2832, 20.95",19
448,01-957,Bielany,ul. Szegedyńska,52.2907,20.944000000000003,"52.2907, 20.944000000000003",20
449,01-958,Bielany,ul. Szubińska,52.2891,20.9447,"52.2891, 20.9447",20
450,01-892,Bielany,ul. T. Duracza,52.2713,20.9563,"52.2713, 20.9563",19
451,01-874,Bielany,ul. T. Duracza,52.2729,20.9564,"52.2729, 20.9564",19
452,01-948,Bielany,ul. T. Nocznickiego,52.2924,20.9329,"52.2924, 20.9329",20
453,01-918,Bielany,ul. T. Nocznickiego,52.2841,20.9228,"52.2841, 20.9228",20
454,01-674,Bielany,ul. Tczewska,52.288000000000004,20.975,"52.288000000000004, 20.975",19
455,01-941,Bielany,ul. Trenów,52.3065,20.8824,"52.3065, 20.8824",18
456,01-982,Bielany,ul. Trylogii,52.3108,20.9236,"52.3108, 20.9236",18
457,01-974,Bielany,ul. Tułowicka,52.3109,20.9122,"52.3109, 20.9122",18
458,01-920,Bielany,ul. Tytułowa,52.2841,20.9147,"52.2841, 20.9147",20
459,01-877,Bielany,ul. W. Broniewskiego,52.2718,20.9389,"52.2718, 20.9389",20
460,01-716,Bielany,ul. W. Broniewskiego,52.2688,20.9542,"52.2688, 20.9542",19
461,01-771,Bielany,ul. W. Broniewskiego,52.2666,20.965999999999998,"52.2666, 20.965999999999998",21
462,01-865,Bielany,ul. W. Broniewskiego,52.2695,20.95,"52.2695, 20.95",19
463,01-854,Bielany,ul. W. Broniewskiego,52.2727,20.9445,"52.2727, 20.9445",20
464,01-876,Bielany,ul. W. Broniewskiego,52.2713,20.9414,"52.2713, 20.9414",20
465,01-883,Bielany,ul. W. Perzyńskiego,52.2739,20.9533,"52.2739, 20.9533",19
466,01-855,Bielany,ul. W. Perzyńskiego,52.2729,20.9508,"52.2729, 20.9508",19
467,01-872,Bielany,ul. W. Perzyńskiego,52.2719,20.9521,"52.2719, 20.9521",19
468,01-698,Bielany,ul. W. Smoleńskiego,52.2808,20.9653,"52.2808, 20.9653",19
469,02-698,Bielany,ul. W. Smoleńskiego,52.1855,21.0034,"52.1855, 21.0034",44
470,01-915,Bielany,ul. Wergiliusza,52.2856,20.9376,"52.2856, 20.9376",20
471,01-931,Bielany,ul. Wólczyńska,52.2816,20.9198,"52.2816, 20.9198",20
472,01-908,Bielany,ul. Wólczyńska,52.2786,20.935,"52.2786, 20.935",20
473,01-919,Bielany,ul. Wólczyńska,52.2948,20.8924,"52.2948, 20.8924",18
474,01-951,Bielany,ul. Wrzeciono,52.2886,20.9397,"52.2886, 20.9397",20
475,01-961,Bielany,ul. Wrzeciono,52.2905,20.9402,"52.2905, 20.9402",20
476,01-963,Bielany,ul. Wrzeciono,52.2944,20.9389,"52.2944, 20.9389",20
477,01-956,Bielany,ul. Wrzeciono,52.2911,20.9454,"52.2911, 20.9454",20
478,01-950,Bielany,ul. Wrzeciono,52.2936,20.9443,"52.2936, 20.9443",20
479,01-531,Bielany,ul. Wybrzeże Gdyńskie,52.2739,20.9966,"52.2739, 20.9966",21
480,01-886,Bielany,ul. Z. Nałkowskiej,52.2753,20.9547,"52.2753, 20.9547",19
481,01-943,Bielany,ul. Zgrupowania AK „Kampinos”,52.2983,20.9333,"52.2983, 20.9333",20
482,01-978,Bielany,ul. Żubrowa,52.3107,20.9167,"52.3107, 20.9167",18
483,02-758,Mokotów,al. gen. W. Sikorskiego,52.18,21.0492,"52.18, 21.0492",42
484,02-722,Mokotów,al. Harcerzy Rzeczypospolitej,52.1636,21.0274,"52.1636, 21.0274",47
485,02-668,Mokotów,al. Lotników,52.1747,21.0136,"52.1747, 21.0136",47
486,02-585,Mokotów,al. Niepodległości,52.1984,21.0126,"52.1984, 21.0126",45
487,02-626,Mokotów,al. Niepodległości,52.1927,21.0152,"52.1927, 21.0152",45
488,02-577,Mokotów,al. Niepodległości,52.2024,21.0109,"52.2024, 21.0109",45
489,02-570,Mokotów,al. Niepodległości,52.2019,21.0103,"52.2019, 21.0103",45
490,02-554,Mokotów,al. Niepodległości,52.2061,21.0092,"52.2061, 21.0092",45
491,02-653,Mokotów,al. Niepodległości,52.1852,21.0189,"52.1852, 21.0189",44
492,02-555,Mokotów,al. Niepodległości,52.2058,21.0085,"52.2058, 21.0085",45
493,02-648,Mokotów,al. Promienistych,52.1937,21.0134,"52.1937, 21.0134",45
494,00-710,Mokotów,al. W. Witosa,52.1939,21.0521,"52.1939, 21.0521",42
495,02-765,Mokotów,al. Wilanowska,52.1724,21.0527,"52.1724, 21.0527",42
496,02-900,Mokotów,al. Wilanowska,52.1729,21.055,"52.1729, 21.055",42
497,02-730,Mokotów,al. Wilanowska,52.1763,21.037,"52.1763, 21.037",47
498,02-665,Mokotów,al. Wilanowska,52.1788,21.0216,"52.1788, 21.0216",47
499,02-681,Mokotów,al. Wyścigowa,52.1669,21.0121,"52.1669, 21.0121",47
500,02-915,Mokotów,pl. A. Rembowskiego,52.1853,21.070999999999998,"52.1853, 21.070999999999998",42
501,02-901,Mokotów,pl. Bernardyński,52.1949,21.0556,"52.1949, 21.0556",42
502,00-707,Mokotów,ul. A. Dyżewskiego,52.2144,21.0645,"52.2144, 21.0645",40
503,02-606,Mokotów,ul. A. E. Odyńca,52.1965,21.0187,"52.1965, 21.0187",45
504,02-644,Mokotów,ul. A. E. Odyńca,52.1952,21.0078,"52.1952, 21.0078",44
505,00-772,Mokotów,ul. A. Gierymskiego,52.1988,21.0362,"52.1988, 21.0362",46
506,00-785,Mokotów,ul. A. Grottgera,52.2054,21.0298,"52.2054, 21.0298",46
507,02-513,Mokotów,ul. A. J. Madalińskiego,52.205,21.0199,"52.205, 21.0199",45
508,02-506,Mokotów,ul. A. J. Madalińskiego,52.2023,21.0033,"52.2023, 21.0033",45
509,02-549,Mokotów,ul. A. J. Madalińskiego,52.2022,21.0052,"52.2022, 21.0052",45
510,02-544,Mokotów,ul. A. J. Madalińskiego,52.2038,21.0137,"52.2038, 21.0137",45
511,02-540,Mokotów,ul. A. J. Madalińskiego,52.2041,21.0135,"52.2041, 21.0135",45
512,02-581,Mokotów,ul. A. J. Madalińskiego,52.2035,21.0095,"52.2035, 21.0095",45
513,02-505,Mokotów,ul. A. Kraushara,52.2013,21.0085,"52.2013, 21.0085",45
514,02-928,Mokotów,ul. A. Locciego,52.1788,21.0609,"52.1788, 21.0609",42
515,02-641,Mokotów,ul. A. Malawskiego,52.1901,20.9911,"52.1901, 20.9911",44
516,02-617,Mokotów,ul. A. Malczewskiego,52.1944,21.0218,"52.1944, 21.0218",45
517,02-612,Mokotów,ul. A. Malczewskiego,52.1939,21.0193,"52.1939, 21.0193",45
518,02-622,Mokotów,ul. A. Malczewskiego,52.1934,21.0156,"52.1934, 21.0156",45
519,02-627,Mokotów,ul. A. Naruszewicza,52.1914,21.0205,"52.1914, 21.0205",45
520,02-750,Mokotów,ul. A. Patkowskiego,52.17100000000001,21.0547,"52.17100000000001, 21.0547",42
521,02-913,Mokotów,ul. A. Waszkowskiego,52.1861,21.0682,"52.1861, 21.0682",42
522,02-619,Mokotów,ul. A. Wejnerta,52.193000000000005,21.0172,"52.193000000000005, 21.0172",45
523,02-761,Mokotów,ul. Adriatycka,52.174,21.0552,"52.174, 21.0552",42
524,02-534,Mokotów,ul. Akacjowa,52.2054,21.0023,"52.2054, 21.0023",45
525,02-760,Mokotów,ul. Akermańska,52.1809,21.0518,"52.1809, 21.0518",42
526,00-711,Mokotów,ul. Ananasowa,52.2065,21.07,"52.2065, 21.07",40
527,02-977,Mokotów,ul. Antoniewska,52.1994,21.0806,"52.1994, 21.0806",40
528,02-747,Mokotów,ul. Arbuzowa,52.1682,21.0585,"52.1682, 21.0585",42
529,02-527,Mokotów,ul. Asfaltowa,52.206,21.0075,"52.206, 21.0075",45
530,02-981,Mokotów,ul. Augustówka,52.1896,21.0878,"52.1896, 21.0878",40
531,00-981,Mokotów,ul. Augustówka,52.1886,21.0813,"52.1886, 21.0813",40
532,02-943,Mokotów,ul. B. Limanowskiego,52.1907,21.0551,"52.1907, 21.0551",42
533,00-769,Mokotów,ul. B. Ludwiżanki,52.1973,21.0421,"52.1973, 21.0421",46
534,00-783,Mokotów,ul. B. Smetany,52.2052,21.0246,"52.2052, 21.0246",45
535,02-647,Mokotów,ul. Baboszewska,52.1938,21.0055,"52.1938, 21.0055",44
536,00-752,Mokotów,ul. Badowska,52.2089,21.0408,"52.2089, 21.0408",46
537,02-553,Mokotów,ul. Balladyny,52.2008,21.0028,"52.2008, 21.0028",45
538,02-635,Mokotów,ul. Balonowa,52.1947,20.9972,"52.1947, 20.9972",44
539,00-767,Mokotów,ul. Bandoski,52.1947,21.0336,"52.1947, 21.0336",46
540,00-736,Mokotów,ul. Banioska,52.2085,21.0395,"52.2085, 21.0395",46
541,02-762,Mokotów,ul. Barcelońska,52.1754,21.055999999999997,"52.1754, 21.055999999999997",42
542,02-683,Mokotów,ul. Bartłomieja,52.1697,21.005,"52.1697, 21.005",44
543,00-713,Mokotów,ul. Batalionu AK „Bałtyk”,52.2112,21.0645,"52.2112, 21.0645",40
544,00-712,Mokotów,ul. Batalionu AK „Karpaty”,52.2087,21.0663,"52.2087, 21.0663",40
545,02-908,Mokotów,ul. Batalionu AK „Oaza”,52.1902,21.0642,"52.1902, 21.0642",42
546,02-743,Mokotów,ul. Batuty,52.1707,21.0246,"52.1707, 21.0246",47
547,02-511,Mokotów,ul. Belgijska,52.2,21.0256,"52.2, 21.0256",45
548,00-761,Mokotów,ul. Belwederska,52.2052,21.0318,"52.2052, 21.0318",46
549,00-762,Mokotów,ul. Belwederska,52.2045,21.0335,"52.2045, 21.0335",46
550,02-695,Mokotów,ul. Bełdan,52.1739,21.0066,"52.1739, 21.0066",44
551,02-638,Mokotów,ul. Bełska,52.1912,20.9995,"52.1912, 20.9995",44
552,02-904,Mokotów,ul. Bernardyńska,52.1938,21.0629,"52.1938, 21.0629",42
553,02-593,Mokotów,ul. Biały Kamień,52.205,20.9965,"52.205, 20.9965",45
554,02-655,Mokotów,ul. Bieżanowska,52.1879,21.0202,"52.1879, 21.0202",44
555,02-660,Mokotów,ul. Blacharska,52.1755,21.0177,"52.1755, 21.0177",47
556,00-728,Mokotów,ul. Bobrowiecka,52.1992,21.046,"52.1992, 21.046",46
557,02-718,Mokotów,ul. Bocheńska,52.1811,21.0304,"52.1811, 21.0304",47
558,02-692,Mokotów,ul. Bogunki,52.1714,21.0029,"52.1714, 21.0029",44
559,02-682,Mokotów,ul. Bokserska,52.1678,21.0057,"52.1678, 21.0057",44
560,02-690,Mokotów,ul. Bokserska,52.169,21.0,"52.169, 21.0",44
561,00-781,Mokotów,ul. Boryszewska,52.2018,21.0255,"52.2018, 21.0255",45
562,00-771,Mokotów,ul. Braci Pillatich,52.1996,21.0343,"52.1996, 21.0343",46
563,02-650,Mokotów,ul. Bukietowa,52.1903,21.0113,"52.1903, 21.0113",44
564,02-708,Mokotów,ul. Bukowa,52.1864,21.0325,"52.1864, 21.0325",47
565,02-703,Mokotów,ul. Bukowińska,52.1817,21.0265,"52.1817, 21.0265",47
566,02-712,Mokotów,ul. Bukszpanowa,52.1858,21.035,"52.1858, 21.035",47
567,02-924,Mokotów,ul. Buska,52.1782,21.0657,"52.1782, 21.0657",42
568,02-912,Mokotów,ul. C. Godebskiego,52.1871,21.068,"52.1871, 21.068",42
569,00-724,Mokotów,ul. Chełmska,52.2019,21.041,"52.2019, 21.041",46
570,00-725,Mokotów,ul. Chełmska,52.2024,21.0431,"52.2024, 21.0431",46
571,02-935,Mokotów,ul. Chochołowska,52.1826,21.061,"52.1826, 21.061",42
572,02-717,Mokotów,ul. Cichy Potok,52.1791,21.0355,"52.1791, 21.0355",47
573,02-716,Mokotów,ul. Cieszyńska,52.1828,21.0274,"52.1828, 21.0274",47
574,02-677,Mokotów,ul. Cybernetyki,52.1766,20.995,"52.1766, 20.995",44
575,00-454,Mokotów,ul. Czerniakowska,52.2162,21.0471,"52.2162, 21.0471",46
576,00-718,Mokotów,ul. Czerniakowska,52.205,21.0485,"52.205, 21.0485",46
577,00-720,Mokotów,ul. Czerniakowska,52.2099,21.0472,"52.2099, 21.0472",46
578,00-701,Mokotów,ul. Czerniakowska,52.1999,21.0515,"52.1999, 21.0515",46
579,00-714,Mokotów,ul. Czerniakowska,52.2031,21.0508,"52.2031, 21.0508",46
580,00-717,Mokotów,ul. Czerniakowska,52.2089,21.0488,"52.2089, 21.0488",46
581,00-715,Mokotów,ul. Czerniakowska,52.2005,21.0496,"52.2005, 21.0496",46
582,02-705,Mokotów,ul. Czerniowiecka,52.1855,21.0269,"52.1855, 21.0269",47
583,00-732,Mokotów,ul. Czerska,52.2049,21.0458,"52.2049, 21.0458",46
584,02-929,Mokotów,ul. Cześnika,52.1802,21.0602,"52.1802, 21.0602",42
585,00-773,Mokotów,ul. Dolna,52.2005,21.0301,"52.2005, 21.0301",46
586,00-774,Mokotów,ul. Dolna,52.201,21.0304,"52.201, 21.0304",46
587,02-672,Mokotów,ul. Domaniewska,52.1834,21.0064,"52.1834, 21.0064",44
588,02-663,Mokotów,ul. Domaniewska,52.1828,21.0187,"52.1828, 21.0187",44
589,02-738,Mokotów,ul. Dominikańska,52.1758,21.0354,"52.1758, 21.0354",47
590,02-602,Mokotów,ul. Dożynkowa,52.1991,21.0198,"52.1991, 21.0198",45
591,02-590,Mokotów,ul. Drużynowa,52.1993,21.0168,"52.1993, 21.0168",45
592,00-784,Mokotów,ul. Dworkowa,52.2054,21.0245,"52.2054, 21.0245",45
593,02-654,Mokotów,ul. Dworska,52.1945,20.9891,"52.1945, 20.9891",44
594,02-659,Mokotów,ul. E. J. Abramowskiego,52.1846,21.0141,"52.1846, 21.0141",44
595,02-669,Mokotów,ul. E. J. Abramowskiego,52.1846,21.0114,"52.1846, 21.0114",44
596,02-764,Mokotów,ul. Egejska,52.1779,21.0576,"52.1779, 21.0576",42
597,02-643,Mokotów,ul. Etiudy Rewolucyjnej,52.1914,20.9902,"52.1914, 20.9902",44
598,02-646,Mokotów,ul. F. Joliot-Curie,52.1917,21.0093,"52.1917, 21.0093",44
599,00-768,Mokotów,ul. F. Kostrzewskiego,52.1965,21.0377,"52.1965, 21.0377",46
600,02-547,Mokotów,ul. Falęcka,52.2029,21.0136,"52.2029, 21.0136",45
601,02-658,Mokotów,ul. Filona,52.1875,21.0156,"52.1875, 21.0156",44
602,02-651,Mokotów,ul. Garażowa,52.1876,21.0046,"52.1876, 21.0046",44
603,02-632,Mokotów,ul. Gimnastyczna,52.1973,20.9969,"52.1973, 20.9969",44
604,02-639,Mokotów,ul. Głogowa,52.1927,21.0005,"52.1927, 21.0005",44
605,02-905,Mokotów,ul. Gołkowska,52.1912,21.066999999999997,"52.1912, 21.066999999999997",42
606,02-954,Mokotów,ul. Goplańska,52.1724,21.0734,"52.1724, 21.0734",38
607,02-910,Mokotów,ul. Goraszewska,52.1884,21.0685,"52.1884, 21.0685",42
608,00-704,Mokotów,ul. Gościniec,52.2092,21.0781,"52.2092, 21.0781",40
609,00-740,Mokotów,ul. Górska,52.2044,21.0365,"52.2044, 21.0365",46
610,02-725,Mokotów,ul. Grabowa,52.1797,21.0253,"52.1797, 21.0253",47
611,02-548,Mokotów,ul. Grażyny,52.2039,21.0207,"52.2039, 21.0207",45
612,00-730,Mokotów,ul. Huculska,52.2005,21.035999999999998,"52.2005, 21.035999999999998",46
613,00-789,Mokotów,ul. Humańska,52.2084,21.0252,"52.2084, 21.0252",45
614,02-628,Mokotów,ul. I. Krasickiego,52.1907,21.0214,"52.1907, 21.0214",45
615,02-611,Mokotów,ul. I. Krasickiego,52.1937,21.0202,"52.1937, 21.0202",45
616,02-608,Mokotów,ul. I. Krasickiego,52.196000000000005,21.0193,"52.196000000000005, 21.0193",45
617,02-710,Mokotów,ul. Imielińska,52.1875,21.0347,"52.1875, 21.0347",47
618,02-711,Mokotów,ul. Inspektowa,52.1862,21.034000000000002,"52.1862, 21.034000000000002",47
619,00-735,Mokotów,ul. Iwicka,52.2062,21.0424,"52.2062, 21.0424",46
620,02-594,Mokotów,ul. J. Bruna,52.2087,21.0022,"52.2087, 21.0022",45
621,02-645,Mokotów,ul. J. Bytnara „Rudego”,52.1933,21.0082,"52.1933, 21.0082",44
622,02-607,Mokotów,ul. J. Czeczota,52.1958,21.0166,"52.1958, 21.0166",45
623,02-558,Mokotów,ul. J. Dąbrowskiego,52.2024,21.0214,"52.2024, 21.0214",45
624,02-598,Mokotów,ul. J. Dąbrowskiego,52.1994,21.0031,"52.1994, 21.0031",45
625,02-503,Mokotów,ul. J. Dąbrowskiego,52.199,21.0033,"52.199, 21.0033",45
626,02-561,Mokotów,ul. J. Dąbrowskiego,52.2015,21.0155,"52.2015, 21.0155",45
627,02-586,Mokotów,ul. J. Dąbrowskiego,52.1998,21.0081,"52.1998, 21.0081",45
628,02-571,Mokotów,ul. J. Dąbrowskiego,52.2007,21.0083,"52.2007, 21.0083",45
629,02-680,Mokotów,ul. J. Elsnera,52.1714,21.038,"52.1714, 21.038",47
630,00-770,Mokotów,ul. J. F. Piwarskiego,52.1982,21.035,"52.1982, 21.035",46
631,00-754,Mokotów,ul. J. Gagarina,52.2072,21.0415,"52.2072, 21.0415",46
632,00-753,Mokotów,ul. J. Gagarina,52.2065,21.0396,"52.2065, 21.0396",46
633,00-748,Mokotów,ul. J. Gagarina,52.2073,21.0359,"52.2073, 21.0359",46
634,02-525,Mokotów,ul. J. K. Chodkiewicza,52.2039,20.9993,"52.2039, 20.9993",45
635,02-642,Mokotów,ul. J. Maklakiewicza,52.1908,20.9926,"52.1908, 20.9926",44
636,02-625,Mokotów,ul. J. P. Woronicza,52.1894,21.0176,"52.1894, 21.0176",44
637,02-640,Mokotów,ul. J. P. Woronicza,52.1892,21.0015,"52.1892, 21.0015",44
638,02-957,Mokotów,ul. Jana III Sobieskiego,52.1728,21.0657,"52.1728, 21.0657",42
639,00-764,Mokotów,ul. Jana III Sobieskiego,52.199,21.0393,"52.199, 21.0393",46
640,00-763,Mokotów,ul. Jana III Sobieskiego,52.1994,21.0368,"52.1994, 21.0368",46
641,02-930,Mokotów,ul. Jana III Sobieskiego,52.184,21.0549,"52.184, 21.0549",42
642,02-941,Mokotów,ul. Jana III Sobieskiego,52.1935,21.0426,"52.1935, 21.0426",46
643,02-934,Mokotów,ul. Jaszowiecka,52.1882,21.0525,"52.1882, 21.0525",42
644,00-766,Mokotów,ul. Jaworowska,52.193999999999996,21.0333,"52.193999999999996, 21.0333",46
645,00-731,Mokotów,ul. Jedwabnicza,52.2012,21.0442,"52.2012, 21.0442",46
646,02-911,Mokotów,ul. Jeziorna,52.1887,21.070999999999998,"52.1887, 21.070999999999998",42
647,02-907,Mokotów,ul. Jodłowa,52.1897,21.0673,"52.1897, 21.0673",42
648,02-517,Mokotów,ul. K. Komedy,52.208999999999996,21.017,"52.208999999999996, 21.017",45
649,02-733,Mokotów,ul. K. Kurpińskiego,52.1764,21.0297,"52.1764, 21.0297",47
650,02-702,Mokotów,ul. Kalatówki,52.1873,21.0264,"52.1873, 21.0264",47
651,02-755,Mokotów,ul. Karczocha,52.1744,21.05,"52.1744, 21.05",42
652,00-733,Mokotów,ul. Kaszubska,52.2058,21.0478,"52.2058, 21.0478",46
653,02-763,Mokotów,ul. Katalońska,52.1755,21.0519,"52.1755, 21.0519",42
654,02-589,Mokotów,ul. Kazimierzowska,52.1989,21.0182,"52.1989, 21.0182",45
655,02-572,Mokotów,ul. Kazimierzowska,52.2015,21.0165,"52.2015, 21.0165",45
656,02-546,Mokotów,ul. Kazimierzowska,52.2037,21.0154,"52.2037, 21.0154",45
657,02-538,Mokotów,ul. Kazimierzowska,52.2051,21.0139,"52.2051, 21.0139",45
658,02-543,Mokotów,ul. Kazimierzowska,52.2061,21.0139,"52.2061, 21.0139",45
659,02-518,Mokotów,ul. Kazimierzowska,52.2074,21.013,"52.2074, 21.013",45
660,00-703,Mokotów,ul. Kątna,52.2071,21.0751,"52.2071, 21.0751",40
661,02-504,Mokotów,ul. Kielecka,52.2014,21.006999999999998,"52.2014, 21.006999999999998",45
662,02-550,Mokotów,ul. Kielecka,52.2033,21.0059,"52.2033, 21.0059",45
663,02-530,Mokotów,ul. Kielecka,52.2054,21.005,"52.2054, 21.005",45
664,02-923,Mokotów,ul. Klarysewska,52.18,21.0692,"52.18, 21.0692",42
665,02-936,Mokotów,ul. Klarysewska,52.1831,21.0599,"52.1831, 21.0599",42
666,02-728,Mokotów,ul. Kmicica,52.1742,21.0236,"52.1742, 21.0236",47
667,02-984,Mokotów,ul. Kobylańska,52.1911,21.0974,"52.1911, 21.0974",40
668,02-691,Mokotów,ul. Kolady,52.1732,21.0,"52.1732, 21.0",44
669,00-775,Mokotów,ul. Konduktorska,52.2006,21.0301,"52.2006, 21.0301",46
670,02-942,Mokotów,ul. Konstancińska,52.1868,21.0596,"52.1868, 21.0596",42
671,02-673,Mokotów,ul. Konstruktorska,52.18600000000001,20.9933,"52.18600000000001, 20.9933",44
672,02-979,Mokotów,ul. Kostrzyńska,52.1886,21.0774,"52.1886, 21.0774",40
673,00-706,Mokotów,ul. Koszykarska,52.2098,21.076999999999998,"52.2098, 21.076999999999998",40
674,00-734,Mokotów,ul. Krasnołęcka,52.2037,21.044,"52.2037, 21.044",46
675,02-578,Mokotów,ul. Króżańska,52.2025,21.0115,"52.2025, 21.0115",45
676,02-759,Mokotów,ul. Krymska,52.1832,21.0502,"52.1832, 21.0502",42
677,02-656,Mokotów,ul. Ksawerów,52.1866,21.0196,"52.1866, 21.0196",44
678,00-793,Mokotów,ul. Kujawska,52.2105,21.0241,"52.2105, 21.0241",35
679,02-579,Mokotów,ul. Kwiatowa,52.2027,21.0123,"52.2027, 21.0123",45
680,02-539,Mokotów,ul. Kwiatowa,52.2045,21.011999999999997,"52.2045, 21.011999999999997",45
681,02-704,Mokotów,ul. L. Idzikowskiego,52.1876,21.0304,"52.1876, 21.0304",47
682,00-743,Mokotów,ul. L. Nabielaka,52.2056,21.034000000000002,"52.2056, 21.034000000000002",46
683,02-564,Mokotów,ul. L. Narbutta,52.2071,21.0207,"52.2071, 21.0207",45
684,02-536,Mokotów,ul. L. Narbutta,52.2061,21.0162,"52.2061, 21.0162",45
685,02-541,Mokotów,ul. L. Narbutta,52.2061,21.0135,"52.2061, 21.0135",45
686,02-529,Mokotów,ul. L. Narbutta,52.2048,21.0083,"52.2048, 21.0083",45
687,02-524,Mokotów,ul. L. Narbutta,52.2038,21.0034,"52.2038, 21.0034",45
688,02-713,Mokotów,ul. Leszczyny,52.1855,21.031999999999996,"52.1855, 21.031999999999996",47
689,02-556,Mokotów,ul. Ligocka,52.2042,21.0101,"52.2042, 21.0101",45
690,02-720,Mokotów,ul. Lubaszki,52.1767,21.0425,"52.1767, 21.0425",47
691,00-780,Mokotów,ul. Ludowa,52.2009,21.0275,"52.2009, 21.0275",45
692,00-705,Mokotów,ul. Łososiowa,52.2119,21.076,"52.2119, 21.076",40
693,02-584,Mokotów,ul. Łowicka,52.1979,21.0074,"52.1979, 21.0074",45
694,02-574,Mokotów,ul. Łowicka,52.1999,21.0065,"52.1999, 21.0065",45
695,02-502,Mokotów,ul. Łowicka,52.2013,21.0054,"52.2013, 21.0054",45
696,02-551,Mokotów,ul. Łowicka,52.203,21.005,"52.203, 21.005",45
697,02-531,Mokotów,ul. Łowicka,52.2049,21.0042,"52.2049, 21.0042",45
698,02-535,Mokotów,ul. Łowicka,52.2052,21.0035,"52.2052, 21.0035",45
699,02-767,Mokotów,ul. Łukowa,52.1735,21.0413,"52.1735, 21.0413",47
700,02-604,Mokotów,ul. M. Bałuckiego,52.199,21.0221,"52.199, 21.0221",45
701,02-557,Mokotów,ul. M. Bałuckiego,52.2017,21.0204,"52.2017, 21.0204",45
702,02-501,Mokotów,ul. M. Karłowicza,52.2017,21.0036,"52.2017, 21.0036",45
703,02-552,Mokotów,ul. M. Karłowicza,52.2021,21.004,"52.2021, 21.004",45
704,02-679,Mokotów,ul. M. Smoluchowskiego,52.1834,21.0135,"52.1834, 21.0135",44
705,02-652,Mokotów,ul. Magazynowa,52.1862,21.0053,"52.1862, 21.0053",44
706,02-633,Mokotów,ul. Maratońska,52.1968,20.9983,"52.1968, 20.9983",44
707,02-674,Mokotów,ul. Marynarska,52.1794,20.9966,"52.1794, 20.9966",44
708,02-649,Mokotów,ul. Marzanny,52.1909,21.0049,"52.1909, 21.0049",44
709,02-537,Mokotów,ul. Melsztyńska,52.2059,21.0184,"52.2059, 21.0184",45
710,02-637,Mokotów,ul. Miączyńska,52.1927,20.9952,"52.1927, 20.9952",44
711,02-634,Mokotów,ul. Miłobędzka,52.196000000000005,20.9937,"52.196000000000005, 20.9937",44
712,02-661,Mokotów,ul. Modra,52.1767,21.0189,"52.1767, 21.0189",47
713,02-917,Mokotów,ul. Morszyńska,52.1838,21.0693,"52.1838, 21.0693",42
714,02-925,Mokotów,ul. Morszyńska,52.1806,21.0659,"52.1806, 21.0659",42
715,02-932,Mokotów,ul. Morszyńska,52.1819,21.0632,"52.1819, 21.0632",42
716,02-916,Mokotów,ul. Muszyńska,52.1831,21.0704,"52.1831, 21.0704",42
717,02-922,Mokotów,ul. Nałęczowska,52.1779,21.0687,"52.1779, 21.0687",42
718,02-678,Mokotów,ul. Narocz,52.1712,21.0137,"52.1712, 21.0137",47
719,02-737,Mokotów,ul. Niedźwiedzia,52.1759,21.0301,"52.1759, 21.0301",47
720,02-666,Mokotów,ul. Niedźwiedzia,52.1773,21.0194,"52.1773, 21.0194",47
721,02-787,Mokotów,ul. Nowoursynowska,52.1649,21.0373,"52.1649, 21.0373",47
722,02-685,Mokotów,ul. O. Langego,52.1811,21.0101,"52.1811, 21.0101",44
723,02-714,Mokotów,ul. Obserwatorów,52.1879,21.0324,"52.1879, 21.0324",47
724,02-560,Mokotów,ul. Odolańska,52.2016,21.0219,"52.2016, 21.0219",45
725,02-562,Mokotów,ul. Odolańska,52.2007,21.016,"52.2007, 21.016",45
726,02-918,Mokotów,ul. Ojcowska,52.181000000000004,21.0716,"52.181000000000004, 21.0716",42
727,02-509,Mokotów,ul. Okolska,52.1972,21.0249,"52.1972, 21.0249",45
728,02-933,Mokotów,ul. Okrężna,52.183,21.0633,"52.183, 21.0633",42
729,02-636,Mokotów,ul. Olimpijska,52.1934,20.9963,"52.1934, 20.9963",44
730,00-792,Mokotów,ul. Olszewska,52.208999999999996,21.0213,"52.208999999999996, 21.0213",45
731,02-522,Mokotów,ul. Opoczyńska,52.2057,21.0061,"52.2057, 21.0061",45
732,02-526,Mokotów,ul. Opoczyńska,52.2058,21.0064,"52.2058, 21.0064",45
733,02-938,Mokotów,ul. Orężna,52.1839,21.0626,"52.1839, 21.0626",42
734,02-937,Mokotów,ul. Orężna,52.1819,21.0593,"52.1819, 21.0593",42
735,02-693,Mokotów,ul. P. Gruszczyńskiego,52.1708,21.0004,"52.1708, 21.0004",44
736,00-777,Mokotów,ul. Padewska,52.2022,21.0308,"52.2022, 21.0308",46
737,00-765,Mokotów,ul. Piaseczyńska,52.1978,21.0323,"52.1978, 21.0323",46
738,02-629,Mokotów,ul. Pilicka,52.1912,21.0197,"52.1912, 21.0197",45
739,02-613,Mokotów,ul. Pilicka,52.1939,21.0186,"52.1939, 21.0186",45
740,02-709,Mokotów,ul. Pod Skocznią,52.1856,21.0337,"52.1856, 21.0337",47
741,02-732,Mokotów,ul. Podbipięty,52.1763,21.0284,"52.1763, 21.0284",47
742,00-721,Mokotów,ul. Podchorążych,52.208,21.0465,"52.208, 21.0465",46
743,00-463,Mokotów,ul. Podchorążych,52.2095,21.0422,"52.2095, 21.0422",46
744,00-722,Mokotów,ul. Podchorążych,52.2091,21.039,"52.2091, 21.039",46
745,02-921,Mokotów,ul. Podgórska,52.1765,21.0674,"52.1765, 21.0674",42
746,00-727,Mokotów,ul. Polkowska,52.201,21.0448,"52.201, 21.0448",46
747,02-757,Mokotów,ul. Pory,52.1856,21.0442,"52.1856, 21.0442",42
748,02-676,Mokotów,ul. Postępu,52.1796,20.9951,"52.1796, 20.9951",44
749,02-920,Mokotów,ul. Powsińska,52.1819,21.0694,"52.1819, 21.0694",42
750,02-903,Mokotów,ul. Powsińska,52.1892,21.0616,"52.1892, 21.0616",42
751,00-778,Mokotów,ul. Promenada,52.2031,21.031,"52.2031, 21.031",46
752,02-749,Mokotów,ul. Przy Grobli,52.172,21.0497,"52.172, 21.0497",42
753,02-515,Mokotów,ul. Puławska,52.2113,21.0214,"52.2113, 21.0214",35
754,02-566,Mokotów,ul. Puławska,52.2107,21.0202,"52.2107, 21.0202",35
755,02-620,Mokotów,ul. Puławska,52.1948,21.0238,"52.1948, 21.0238",45
756,02-595,Mokotów,ul. Puławska,52.1986,21.0244,"52.1986, 21.0244",45
757,02-707,Mokotów,ul. Puławska,52.1893,21.0254,"52.1893, 21.0254",47
758,02-715,Mokotów,ul. Puławska,52.1789,21.0225,"52.1789, 21.0225",47
759,02-624,Mokotów,ul. Puławska,52.1906,21.0241,"52.1906, 21.0241",47
760,02-512,Mokotów,ul. Puławska,52.2065,21.022,"52.2065, 21.022",45
761,02-670,Mokotów,ul. Puławska,52.1811,21.0221,"52.1811, 21.0221",47
762,02-684,Mokotów,ul. Puławska,52.1679,21.0167,"52.1679, 21.0167",47
763,02-740,Mokotów,ul. Puławska,52.1699,21.0194,"52.1699, 21.0194",47
764,02-769,Mokotów,ul. Puławska,52.1695,21.0193,"52.1695, 21.0193",47
765,02-508,Mokotów,ul. Puławska,52.2065,21.0229,"52.2065, 21.0229",45
766,02-559,Mokotów,ul. Puławska,52.2028,21.0222,"52.2028, 21.0222",45
767,02-592,Mokotów,ul. Puławska,52.2015,21.0232,"52.2015, 21.0232",45
768,02-603,Mokotów,ul. Puławska,52.1997,21.0234,"52.1997, 21.0234",45
769,02-751,Mokotów,ul. Rabarbarowa,52.1729,21.0521,"52.1729, 21.0521",42
770,02-601,Mokotów,ul. Racławicka,52.1987,21.0167,"52.1987, 21.0167",45
771,02-521,Mokotów,ul. Rakowiecka,52.2079,21.0085,"52.2079, 21.0085",45
772,02-528,Mokotów,ul. Rakowiecka,52.2072,21.0047,"52.2072, 21.0047",45
773,02-519,Mokotów,ul. Rakowiecka,52.2085,21.0133,"52.2085, 21.0133",45
774,02-532,Mokotów,ul. Rakowiecka,52.2067,21.0014,"52.2067, 21.0014",45
775,00-708,Mokotów,ul. Rodzynkowa,52.2144,21.0707,"52.2144, 21.0707",40
776,02-729,Mokotów,ul. Rolna,52.1713,21.026999999999997,"52.1713, 21.026999999999997",47
777,02-569,Mokotów,ul. Różana,52.2019,21.0138,"52.2019, 21.0138",45
778,02-616,Mokotów,ul. S. Goszczyńskiego,52.1958,21.0212,"52.1958, 21.0212",45
779,02-610,Mokotów,ul. S. Goszczyńskiego,52.1953,21.0172,"52.1953, 21.0172",45
780,02-567,Mokotów,ul. Sandomierska,52.2078,21.0193,"52.2078, 21.0193",45
781,00-709,Mokotów,ul. Siekierkowska,52.2102,21.0739,"52.2102, 21.0739",40
782,00-738,Mokotów,ul. Sielecka,52.2058,21.0392,"52.2058, 21.0392",46
783,02-978,Mokotów,ul. Skałacka,52.1897,21.0799,"52.1897, 21.0799",40
784,00-795,Mokotów,ul. Skolimowska,52.2117,21.0217,"52.2117, 21.0217",35
785,02-726,Mokotów,ul. Skrzetuskiego,52.1764,21.0241,"52.1764, 21.0241",47
786,02-939,Mokotów,ul. Solankowa,52.1847,21.0627,"52.1847, 21.0627",42
787,02-744,Mokotów,ul. Sonaty,52.1703,21.0285,"52.1703, 21.0285",47
788,02-516,Mokotów,ul. Starościńska,52.2079,21.0187,"52.2079, 21.0187",45
789,02-591,Mokotów,ul. Stefana Batorego,52.2111,21.0097,"52.2111, 21.0097",34
790,00-739,Mokotów,ul. Stępińska,52.2062,21.0375,"52.2062, 21.0375",46
791,00-745,Mokotów,ul. Stopowa,52.2037,21.0352,"52.2037, 21.0352",46
792,02-735,Mokotów,ul. Studencka,52.1761,21.031,"52.1761, 21.031",47
793,00-746,Mokotów,ul. Sułkowicka,52.206,21.0328,"52.206, 21.0328",46
794,02-902,Mokotów,ul. Sypniewska,52.1909,21.0763,"52.1909, 21.0763",40
795,02-609,Mokotów,ul. Szarotki,52.1963,21.0209,"52.1963, 21.0209",45
796,02-605,Mokotów,ul. Szczekocińska,52.1977,21.0185,"52.1977, 21.0185",45
797,02-914,Mokotów,ul. św. Bonifacego,52.178000000000004,21.0484,"52.178000000000004, 21.0484",42
798,02-909,Mokotów,ul. św. Bonifacego,52.1898,21.0657,"52.1898, 21.0657",42
799,02-945,Mokotów,ul. św. Bonifacego,52.1851,21.0597,"52.1851, 21.0597",42
800,02-940,Mokotów,ul. św. Bonifacego,52.1858,21.0626,"52.1858, 21.0626",42
801,02-568,Mokotów,ul. św. Szczepana,52.2059,21.0179,"52.2059, 21.0179",45
802,02-662,Mokotów,ul. Świeradowska,52.1781,21.0185,"52.1781, 21.0185",47
803,00-749,Mokotów,ul. T. Hołówki,52.2085,21.0462,"52.2085, 21.0462",46
804,02-618,Mokotów,ul. T. Lenartowicza,52.1931,21.0219,"52.1931, 21.0219",45
805,02-614,Mokotów,ul. T. Lenartowicza,52.1923,21.0191,"52.1923, 21.0191",45
806,00-742,Mokotów,ul. Tatrzańska,52.2053,21.0351,"52.2053, 21.0351",46
807,02-985,Mokotów,ul. Tuzinowa,52.1866,21.0971,"52.1866, 21.0971",40
808,02-630,Mokotów,ul. Tyniecka,52.1915,21.0226,"52.1915, 21.0226",45
809,02-615,Mokotów,ul. Tyniecka,52.1936,21.0226,"52.1936, 21.0226",45
810,02-621,Mokotów,ul. Tyniecka,52.1952,21.0228,"52.1952, 21.0228",45
811,02-736,Mokotów,ul. W. A. Mozarta,52.1752,21.0319,"52.1752, 21.0319",47
812,02-697,Mokotów,ul. W. Rzymowskiego,52.1726,21.0054,"52.1726, 21.0054",44
813,02-701,Mokotów,ul. W. Żywnego,52.1922,21.0264,"52.1922, 21.0264",47
814,02-986,Mokotów,ul. Wał Zawadowski,52.1687,21.123,"52.1687, 21.123",39
815,02-739,Mokotów,ul. Wałbrzyska,52.1734,21.0281,"52.1734, 21.0281",47
816,02-727,Mokotów,ul. Wernyhory,52.1761,21.0253,"52.1761, 21.0253",47
817,02-657,Mokotów,ul. Wielicka,52.1861,21.0217,"52.1861, 21.0217",44
818,02-587,Mokotów,ul. Wiktorska,52.2002,21.0184,"52.2002, 21.0184",45
819,02-575,Mokotów,ul. Wiktorska,52.1976,21.003,"52.1976, 21.003",45
820,02-582,Mokotów,ul. Wiktorska,52.1982,21.0075,"52.1982, 21.0075",45
821,00-790,Mokotów,ul. Willowa,52.2073,21.0241,"52.2073, 21.0241",45
822,02-563,Mokotów,ul. Wiśniowa,52.2017,21.0183,"52.2017, 21.0183",45
823,02-545,Mokotów,ul. Wiśniowa,52.2038,21.0164,"52.2038, 21.0164",45
824,02-520,Mokotów,ul. Wiśniowa,52.2082,21.0145,"52.2082, 21.0145",45
825,00-702,Mokotów,ul. Wolicka,52.2013,21.0721,"52.2013, 21.0721",40
826,02-724,Mokotów,ul. Wołodyjowskiego,52.1765,21.0227,"52.1765, 21.0227",47
827,02-583,Mokotów,ul. Wołoska,52.1913,21.0016,"52.1913, 21.0016",44
828,02-675,Mokotów,ul. Wołoska,52.1833,21.0024,"52.1833, 21.0024",44
829,02-507,Mokotów,ul. Wołoska,52.1993,21.0012,"52.1993, 21.0012",45
830,00-788,Mokotów,ul. Wybieg,52.2087,21.0257,"52.2087, 21.0257",45
831,02-746,Mokotów,ul. Z. Noskowskiego,52.1713,21.0354,"52.1713, 21.0354",47
832,00-737,Mokotów,ul. Zakrzewska,52.2034,21.0405,"52.2034, 21.0405",46
833,02-927,Mokotów,ul. Zawojska,52.1804,21.061,"52.1804, 21.061",42
834,02-983,Mokotów,ul. Zegarowa,52.19,21.0974,"52.19, 21.0974",40
835,00-719,Mokotów,ul. Zwierzyniecka,52.2093,21.0503,"52.2093, 21.0503",46
836,02-092,Mokotów,ul. Żwirki i Wigury,52.1947,20.9843,"52.1947, 20.9843",44
837,02-389,Ochota,al. Bohaterów Września,52.2082,20.9625,"52.2082, 20.9625",14
838,02-011,Ochota,Al. Jerozolimskie,52.2261,20.9954,"52.2261, 20.9954",34
839,02-017,Ochota,Al. Jerozolimskie,52.2253,20.9925,"52.2253, 20.9925",34
840,00-807,Ochota,Al. Jerozolimskie,52.2227,20.9792,"52.2227, 20.9792",33
841,02-304,Ochota,Al. Jerozolimskie,52.223,20.9836,"52.223, 20.9836",33
842,02-305,Ochota,Al. Jerozolimskie,52.2174,20.9629,"52.2174, 20.9629",14
843,02-326,Ochota,Al. Jerozolimskie,52.2161,20.9637,"52.2161, 20.9637",14
844,02-342,Ochota,Al. Jerozolimskie,52.2073,20.9436,"52.2073, 20.9436",14
845,02-222,Ochota,Al. Jerozolimskie,52.199,20.9321,"52.199, 20.9321",10
846,02-122,Ochota,Al. Jerozolimskie,52.2015,20.968000000000004,"52.2015, 20.968000000000004",14
847,00-803,Ochota,Al. Jerozolimskie,52.226000000000006,20.9923,"52.226000000000006, 20.9923",34
848,02-001,Ochota,Al. Jerozolimskie,52.2269,20.9997,"52.2269, 20.9997",34
849,02-086,Ochota,al. Niepodległości,52.2132,21.0052,"52.2132, 21.0052",34
850,02-087,Ochota,al. Niepodległości,52.2183,21.0046,"52.2183, 21.0046",34
851,02-009,Ochota,al. Niepodległości,52.2216,21.0044,"52.2216, 21.0044",34
852,02-025,Ochota,pl. A. Zawiszy,52.2235,20.9891,"52.2235, 20.9891",33
853,02-029,Ochota,pl. G. Narutowicza,52.2187,20.9838,"52.2187, 20.9838",33
854,02-015,Ochota,pl. S. Starynkiewicza,52.2252,20.9954,"52.2252, 20.9954",34
855,02-028,Ochota,ul. A. Asnyka,52.2201,20.9874,"52.2201, 20.9874",33
856,02-052,Ochota,ul. A. Krzyckiego,52.2182,20.99,"52.2182, 20.99",33
857,02-106,Ochota,ul. A. Pawińskiego,52.2056,20.9766,"52.2056, 20.9766",14
858,02-047,Ochota,ul. A. Pługa,52.2168,20.9855,"52.2168, 20.9855",33
859,02-070,Ochota,ul. A. Solariego,52.2178,20.9986,"52.2178, 20.9986",34
860,02-038,Ochota,ul. Akademicka,52.2182,20.9849,"52.2182, 20.9849",33
861,02-386,Ochota,ul. Altowa,52.2005,20.9621,"52.2005, 20.9621",14
862,02-312,Ochota,ul. Andrzejowska,52.2211,20.9817,"52.2211, 20.9817",33
863,02-075,Ochota,ul. Aplikancka,52.2178,21.0035,"52.2178, 21.0035",34
864,02-395,Ochota,ul. Architektów,52.2056,20.969,"52.2056, 20.969",14
865,02-103,Ochota,ul. Archiwalna,52.2084,20.9777,"52.2084, 20.9777",14
866,02-315,Ochota,ul. Barska,52.218999999999994,20.9776,"52.218999999999994, 20.9776",33
867,02-349,Ochota,ul. Baśniowa,52.2142,20.9775,"52.2142, 20.9775",33
868,02-379,Ochota,ul. Białobrzeska,52.2087,20.9689,"52.2087, 20.9689",14
869,02-380,Ochota,ul. Białobrzeska,52.2087,20.9697,"52.2087, 20.9697",14
870,02-371,Ochota,ul. Białobrzeska,52.2108,20.9718,"52.2108, 20.9718",14
871,02-370,Ochota,ul. Białobrzeska,52.2114,20.9715,"52.2114, 20.9715",14
872,02-364,Ochota,ul. Białobrzeska,52.2137,20.9729,"52.2137, 20.9729",33
873,02-365,Ochota,ul. Białobrzeska,52.2133,20.9737,"52.2133, 20.9737",33
874,02-340,Ochota,ul. Białobrzeska,52.216,20.9756,"52.216, 20.9756",33
875,02-341,Ochota,ul. Białobrzeska,52.2152,20.9754,"52.2152, 20.9754",33
876,02-325,Ochota,ul. Białobrzeska,52.2199,20.9782,"52.2199, 20.9782",33
877,02-394,Ochota,ul. Bielska,52.1999,20.9615,"52.1999, 20.9615",14
878,02-362,Ochota,ul. Bitwy Warszawskiej 1920 r.,52.2118,20.9745,"52.2118, 20.9745",33
879,02-366,Ochota,ul. Bitwy Warszawskiej 1920 r.,52.2139,20.9685,"52.2139, 20.9685",14
880,02-066,Ochota,ul. bł. Ładysława z Gielniowa,52.218,20.9974,"52.218, 20.9974",34
881,02-202,Ochota,ul. Cesarskiej Korony,52.2079,20.9564,"52.2079, 20.9564",14
882,02-345,Ochota,ul. Chotomowska,52.2158,20.9789,"52.2158, 20.9789",33
883,02-344,Ochota,ul. Częstochowska,52.2152,20.9771,"52.2152, 20.9771",33
884,02-350,Ochota,ul. Częstochowska,52.2159,20.9726,"52.2159, 20.9726",33
885,02-082,Ochota,ul. Czubatki,52.2156,20.9995,"52.2156, 20.9995",34
886,02-020,Ochota,ul. Daleka,52.2222,20.9888,"52.2222, 20.9888",33
887,02-024,Ochota,ul. Daleka,52.2226,20.9878,"52.2226, 20.9878",33
888,02-376,Ochota,ul. Dobosza,52.211000000000006,20.9672,"52.211000000000006, 20.9672",14
889,02-347,Ochota,ul. Dorotowska,52.2142,20.9765,"52.2142, 20.9765",33
890,02-318,Ochota,ul. Drobiazg,52.2176,20.9792,"52.2176, 20.9792",33
891,02-369,Ochota,ul. Dunajecka,52.2112,20.9735,"52.2112, 20.9735",14
892,02-374,Ochota,ul. E. Orzeszkowej,52.2115,20.9695,"52.2115, 20.9695",14
893,02-207,Ochota,ul. Filipinki,52.2087,20.9542,"52.2087, 20.9542",14
894,02-032,Ochota,ul. Filtrowa,52.218999999999994,20.9993,"52.218999999999994, 20.9993",34
895,02-057,Ochota,ul. Filtrowa,52.2189,20.9982,"52.2189, 20.9982",34
896,02-056,Ochota,ul. Filtrowa,52.2187,20.9977,"52.2187, 20.9977",34
897,02-055,Ochota,ul. Filtrowa,52.218999999999994,20.9914,"52.218999999999994, 20.9914",33
898,02-396,Ochota,ul. Geodetów,52.2046,20.9692,"52.2046, 20.9692",14
899,02-130,Ochota,ul. Gorlicka,52.1956,20.9774,"52.1956, 20.9774",14
900,02-021,Ochota,ul. Grójecka,52.2221,20.9868,"52.2221, 20.9868",33
901,02-101,Ochota,ul. Grójecka,52.2085,20.9752,"52.2085, 20.9752",14
902,02-367,Ochota,ul. Grójecka,52.2087,20.9738,"52.2087, 20.9738",14
903,02-120,Ochota,ul. Grójecka,52.2043,20.9712,"52.2043, 20.9712",14
904,02-383,Ochota,ul. Grójecka,52.2043,20.97,"52.2043, 20.97",14
905,02-124,Ochota,ul. Grójecka,52.201,20.9685,"52.201, 20.9685",14
906,02-390,Ochota,ul. Grójecka,52.2003,20.9664,"52.2003, 20.9664",14
907,02-301,Ochota,ul. Grójecka,52.2222,20.9857,"52.2222, 20.9857",33
908,02-030,Ochota,ul. Grójecka,52.2205,20.9853,"52.2205, 20.9853",33
909,02-308,Ochota,ul. Grójecka,52.2205,20.9844,"52.2205, 20.9844",33
910,02-314,Ochota,ul. Grójecka,52.2196,20.9835,"52.2196, 20.9835",33
911,02-031,Ochota,ul. Grójecka,52.2167,20.982,"52.2167, 20.982",33
912,02-320,Ochota,ul. Grójecka,52.2175,20.9817,"52.2175, 20.9817",33
913,02-019,Ochota,ul. Grójecka,52.223,20.9876,"52.223, 20.9876",33
914,02-094,Ochota,ul. Grójecka,52.2132,20.979,"52.2132, 20.979",33
915,02-339,Ochota,ul. Grójecka,52.2149,20.9794,"52.2149, 20.9794",33
916,02-359,Ochota,ul. Grójecka,52.2128,20.9772,"52.2128, 20.9772",33
917,02-209,Ochota,ul. H. Mierzejewskiego,52.208,20.9536,"52.208, 20.9536",14
918,02-096,Ochota,ul. I. Miecznikowa,52.2137,20.986,"52.2137, 20.986",33
919,02-054,Ochota,ul. J. Dantyszka,52.2182,20.9906,"52.2182, 20.9906",33
920,02-049,Ochota,ul. J. Korzeniowskiego,52.2167,20.9838,"52.2167, 20.9838",33
921,02-044,Ochota,ul. J. Mianowskiego,52.218,20.9876,"52.218, 20.9876",33
922,02-022,Ochota,ul. J. U. Niemcewicza,52.2206,20.988000000000003,"52.2206, 20.988000000000003",33
923,02-306,Ochota,ul. J. U. Niemcewicza,52.2215,20.9818,"52.2215, 20.9818",33
924,02-027,Ochota,ul. J. U. Niemcewicza,52.2212,20.9881,"52.2212, 20.9881",33
925,02-129,Ochota,ul. Jankowska,52.1957,20.9803,"52.1957, 20.9803",14
926,02-128,Ochota,ul. Jasielska,52.2003,20.9816,"52.2003, 20.9816",14
927,02-073,Ochota,ul. Jesionowa,52.2176,21.0022,"52.2176, 21.0022",34
928,02-127,Ochota,ul. K. Bohdanowicza,52.1982,20.9773,"52.1982, 20.9773",14
929,02-382,Ochota,ul. K. Dickensa,52.207,20.9682,"52.207, 20.9682",14
930,02-107,Ochota,ul. K. Dickensa,52.2051,20.9743,"52.2051, 20.9743",14
931,02-063,Ochota,ul. K. Warszewickiego,52.2185,20.9931,"52.2185, 20.9931",33
932,02-316,Ochota,ul. Kaliska,52.2197,20.980999999999998,"52.2197, 20.980999999999998",33
933,02-321,Ochota,ul. Kopińska,52.2172,20.9794,"52.2172, 20.9794",33
934,02-327,Ochota,ul. Kopińska,52.2177,20.9747,"52.2177, 20.9747",33
935,02-008,Ochota,ul. Koszykowa,52.2233,21.0008,"52.2233, 21.0008",34
936,02-012,Ochota,ul. Koszykowa,52.2234,20.9955,"52.2234, 20.9955",34
937,02-109,Ochota,ul. Księcia Trojdena,52.2052,20.9822,"52.2052, 20.9822",14
938,02-203,Ochota,ul. Kurhan,52.2101,20.9561,"52.2101, 20.9561",14
939,02-078,Ochota,ul. L. Krzywickiego,52.218,21.0,"52.218, 21.0",34
940,02-093,Ochota,ul. L. Pasteura,52.2137,20.9823,"52.2137, 20.9823",33
941,02-351,Ochota,ul. Lelechowska,52.2168,20.9749,"52.2168, 20.9749",33
942,02-084,Ochota,ul. Leszowa,52.215,21.0025,"52.215, 21.0025",34
943,02-387,Ochota,ul. Lirowa,52.201,20.9628,"52.201, 20.9628",14
944,02-388,Ochota,ul. Lutniowa,52.1997,20.9642,"52.1997, 20.9642",14
945,02-065,Ochota,ul. Łęczycka,52.2183,20.9959,"52.2183, 20.9959",34
946,02-062,Ochota,ul. M. Kromera,52.2185,20.9912,"52.2185, 20.9912",33
947,02-071,Ochota,ul. M. Langiewicza,52.2182,21.0021,"52.2182, 21.0021",34
948,02-042,Ochota,ul. M. Mochnackiego,52.218,20.9862,"52.218, 20.9862",33
949,02-041,Ochota,ul. M. Mochnackiego,52.2171,20.9847,"52.2171, 20.9847",33
950,02-112,Ochota,ul. M. Nowickiego,52.2031,20.9833,"52.2031, 20.9833",14
951,02-053,Ochota,ul. M. Reja,52.2173,20.9902,"52.2173, 20.9902",33
952,02-392,Ochota,ul. Maszynowa,52.2014,20.9513,"52.2014, 20.9513",14
953,02-373,Ochota,ul. Mątwicka,52.2114,20.9708,"52.2114, 20.9708",14
954,02-391,Ochota,ul. Mikołaja Drygały,52.2003,20.9524,"52.2003, 20.9524",14
955,02-337,Ochota,ul. Mszczonowska,52.2134,20.9487,"52.2134, 20.9487",14
956,02-335,Ochota,ul. Na Bateryjce,52.2143,20.9582,"52.2143, 20.9582",14
957,02-343,Ochota,ul. Nieborowska,52.2159,20.9769,"52.2159, 20.9769",33
958,02-204,Ochota,ul. Nowoberestecka,52.2109,20.9537,"52.2109, 20.9537",14
959,02-006,Ochota,ul. Nowogrodzka,52.2255,20.999000000000002,"52.2255, 20.999000000000002",34
960,02-002,Ochota,ul. Nowogrodzka,52.2265,21.0009,"52.2265, 21.0009",34
961,02-014,Ochota,ul. Nowogrodzka,52.2258,20.998,"52.2258, 20.998",34
962,02-018,Ochota,ul. Nowogrodzka,52.2246,20.9924,"52.2246, 20.9924",34
963,02-010,Ochota,ul. Nowowiejska,52.2202,21.0021,"52.2202, 21.0021",34
964,02-085,Ochota,ul. Ondraszka,52.2142,20.9969,"52.2142, 20.9969",34
965,02-368,Ochota,ul. Opaczewska,52.2104,20.9731,"52.2104, 20.9731",14
966,02-372,Ochota,ul. Opaczewska,52.2107,20.9657,"52.2107, 20.9657",14
967,02-201,Ochota,ul. Opaczewska,52.2118,20.9614,"52.2118, 20.9614",14
968,02-068,Ochota,ul. Orzechowska,52.2183,20.9967,"52.2183, 20.9967",34
969,02-375,Ochota,ul. Piotrkowska,52.2114,20.9685,"52.2114, 20.9685",14
970,02-310,Ochota,ul. Poniecka,52.2206,20.9837,"52.2206, 20.9837",33
971,02-398,Ochota,ul. Powstańców Wielkopolskich,52.2047,20.9674,"52.2047, 20.9674",14
972,02-324,Ochota,ul. ppłk. M. Sokołowskiego „Grzymały”,52.2183,20.9762,"52.2183, 20.9762",33
973,02-072,Ochota,ul. Prezydencka,52.2176,21.0012,"52.2176, 21.0012",34
974,02-074,Ochota,ul. Prokuratorska,52.2177,21.0029,"52.2177, 21.0029",34
975,02-119,Ochota,ul. Pruszkowska,52.2019,20.976999999999997,"52.2019, 20.976999999999997",14
976,02-118,Ochota,ul. Pruszkowska,52.2016,20.9823,"52.2016, 20.9823",14
977,02-361,Ochota,ul. Przemyska,52.2126,20.9749,"52.2126, 20.9749",33
978,02-384,Ochota,ul. Przy Parku,52.2019,20.9564,"52.2019, 20.9564",14
979,02-117,Ochota,ul. Racławicka,52.1985,20.9776,"52.1985, 20.9776",14
980,02-323,Ochota,ul. Radomska,52.2165,20.9787,"52.2165, 20.9787",33
981,02-026,Ochota,ul. Raszyńska,52.2222,20.9896,"52.2222, 20.9896",33
982,02-033,Ochota,ul. Raszyńska,52.2177,20.9887,"52.2177, 20.9887",33
983,02-131,Ochota,ul. Rokitnicka,52.2116,20.9949,"52.2116, 20.9949",34
984,02-348,Ochota,ul. Rokosowska,52.215,20.971999999999998,"52.215, 20.971999999999998",33
985,02-069,Ochota,ul. Rudawska,52.2183,20.9977,"52.2183, 20.9977",34
986,02-132,Ochota,ul. S. Baleya,52.196999999999996,20.9805,"52.196999999999996, 20.9805",14
987,02-097,Ochota,ul. S. Banacha,52.2107,20.9821,"52.2107, 20.9821",33
988,02-378,Ochota,ul. S. Bobrowskiego,52.2085,20.9705,"52.2085, 20.9705",14
989,02-377,Ochota,ul. S. Skarżyńskiego,52.2081,20.9723,"52.2081, 20.9723",14
990,02-110,Ochota,ul. Sanocka,52.2037,20.9822,"52.2037, 20.9822",14
991,02-111,Ochota,ul. Sanocka,52.2047,20.9823,"52.2047, 20.9823",14
992,02-116,Ochota,ul. Sąchocka,52.1975,20.9733,"52.1975, 20.9733",14
993,02-081,Ochota,ul. Sędziowska,52.2177,21.0041,"52.2177, 21.0041",34
994,02-313,Ochota,ul. Sękocińska,52.2205,20.9782,"52.2205, 20.9782",33
995,02-360,Ochota,ul. Siewierska,52.2131,20.9755,"52.2131, 20.9755",33
996,02-309,Ochota,ul. Słupecka,52.2202,20.9825,"52.2202, 20.9825",33
997,02-302,Ochota,ul. Spiska,52.2221,20.9844,"52.2221, 20.9844",33
998,02-205,Ochota,ul. Stadionowa,52.2098,20.9545,"52.2098, 20.9545",14
999,02-352,Ochota,ul. Szczęśliwicka,52.2193,20.9737,"52.2193, 20.9737",33
1000,02-353,Ochota,ul. Szczęśliwicka,52.2137,20.9683,"52.2137, 20.9683",14
1001,02-004,Ochota,ul. T. Chałubińskiego,52.2255,21.0028,"52.2255, 21.0028",34
1002,02-317,Ochota,ul. T. Joteyki,52.2198,20.9784,"52.2198, 20.9784",33
1003,02-023,Ochota,ul. Tarczyńska,52.2221,20.9879,"52.2221, 20.9879",33
1004,02-381,Ochota,ul. Trzech Budrysów,52.2089,20.9669,"52.2089, 20.9669",14
1005,02-036,Ochota,ul. Uniwersytecka,52.2174,20.9867,"52.2174, 20.9867",33
1006,02-397,Ochota,ul. Urbanistów,52.206,20.9668,"52.206, 20.9668",14
1007,02-005,Ochota,ul. W. H. Lindleya,52.2247,20.9974,"52.2247, 20.9974",34
1008,02-013,Ochota,ul. W. H. Lindleya,52.2258,20.9965,"52.2258, 20.9965",34
1009,02-121,Ochota,ul. W. Korotyńskiego,52.2001,20.98,"52.2001, 20.98",14
1010,02-123,Ochota,ul. W. Korotyńskiego,52.2023,20.9709,"52.2023, 20.9709",14
1011,02-007,Ochota,ul. W. Oczki,52.2244,21.0002,"52.2244, 21.0002",34
1012,02-115,Ochota,ul. W. Okińskiego,52.1971,20.9751,"52.1971, 20.9751",14
1013,02-104,Ochota,ul. W. Skorochód-Majewskiego,52.2052,20.9733,"52.2052, 20.9733",14
1014,02-034,Ochota,ul. Wawelska,52.2161,20.9893,"52.2161, 20.9893",33
1015,02-061,Ochota,ul. Wawelska,52.2173,21.0017,"52.2173, 21.0017",34
1016,02-067,Ochota,ul. Wawelska,52.2169,20.9938,"52.2169, 20.9938",33
1017,02-319,Ochota,ul. Węgierska,52.218,20.9803,"52.218, 20.9803",33
1018,02-095,Ochota,ul. Winnicka,52.2132,20.9806,"52.2132, 20.9806",33
1019,02-114,Ochota,ul. Wiślicka,52.2031,20.9775,"52.2031, 20.9775",14
1020,02-336,Ochota,ul. Włochowska,52.2135,20.9467,"52.2135, 20.9467",14
1021,02-393,Ochota,ul. Włodarzewska,52.2034,20.9473,"52.2034, 20.9473",14
1022,02-098,Ochota,ul. Wolnej Wszechnicy,52.2119,20.9805,"52.2119, 20.9805",33
1023,02-051,Ochota,ul. Z. Glogera,52.2166,20.9831,"52.2166, 20.9831",33
1024,02-206,Ochota,ul. Zadumana,52.2049,20.9475,"52.2049, 20.9475",14
1025,02-089,Ochota,ul. Żwirki i Wigury,52.2128,20.9876,"52.2128, 20.9876",33
1026,02-143,Ochota,ul. Żwirki i Wigury,52.1851,20.9787,"52.1851, 20.9787",14
1027,02-091,Ochota,ul. Żwirki i Wigury,52.202,20.9843,"52.202, 20.9843",14
1028,02-090,Ochota,ul. Żwirki i Wigury,52.2122,20.9891,"52.2122, 20.9891",33
1029,03-910,Praga-Południe,al. J. Waszyngtona,52.2393,21.0585,"52.2393, 21.0585",27
1030,04-015,Praga-Południe,al. J. Waszyngtona,52.2426,21.0737,"52.2426, 21.0737",25
1031,04-008,Praga-Południe,al. J. Waszyngtona,52.2432,21.0761,"52.2432, 21.0761",25
1032,04-074,Praga-Południe,al. J. Waszyngtona,52.244,21.0799,"52.244, 21.0799",25
1033,04-076,Praga-Południe,al. J. Waszyngtona,52.244,21.0811,"52.244, 21.0811",25
1034,04-030,Praga-Południe,al. J. Waszyngtona,52.2408,21.0726,"52.2408, 21.0726",25
1035,03-901,Praga-Południe,al. Józefa Poniatowskiego,52.2385,21.0468,"52.2385, 21.0468",27
1036,03-965,Praga-Południe,al. Stanów Zjednoczonych,52.2088,21.1098,"52.2088, 21.1098",40
1037,03-964,Praga-Południe,al. Stanów Zjednoczonych,52.2286,21.0646,"52.2286, 21.0646",27
1038,03-947,Praga-Południe,al. Stanów Zjednoczonych,52.2291,21.0634,"52.2291, 21.0634",27
1039,04-036,Praga-Południe,al. Stanów Zjednoczonych,52.2378,21.0811,"52.2378, 21.0811",25
1040,04-028,Praga-Południe,al. Stanów Zjednoczonych,52.2401,21.0809,"52.2401, 21.0809",25
1041,03-727,Praga-Południe,al. Zieleniecka,52.2466,21.0476,"52.2466, 21.0476",26
1042,04-142,Praga-Południe,pl. P. Szembeka,52.2431,21.1027,"52.2431, 21.1027",24
1043,03-944,Praga-Południe,pl. Przymierza,52.2261,21.0648,"52.2261, 21.0648",27
1044,03-988,Praga-Południe,pl. T. Kotarbińskiego,52.2204,21.0986,"52.2204, 21.0986",40
1045,04-053,Praga-Południe,ul. 1 Praskiego Pułku,52.2377,21.084,"52.2377, 21.084",25
1046,03-983,Praga-Południe,ul. 21 PP Dzieci Warszawy,52.2238,21.0831,"52.2238, 21.0831",25
1047,03-803,Praga-Południe,ul. A. Frycza Modrzewskiego,52.2495,21.0541,"52.2495, 21.0541",27
1048,04-143,Praga-Południe,ul. A. Kordeckiego,52.2425,21.1064,"52.2425, 21.1064",24
1049,04-327,Praga-Południe,ul. A. Kordeckiego,52.2433,21.1026,"52.2433, 21.1026",24
1050,04-330,Praga-Południe,ul. A. Kordeckiego,52.2442,21.0984,"52.2442, 21.0984",24
1051,04-355,Praga-Południe,ul. A. Kordeckiego,52.2452,21.0937,"52.2452, 21.0937",25
1052,03-930,Praga-Południe,ul. A. Nobla,52.2337,21.0588,"52.2337, 21.0588",27
1053,03-919,Praga-Południe,ul. A. Nobla,52.2359,21.0575,"52.2359, 21.0575",27
1054,03-913,Praga-Południe,ul. Adampolska,52.2387,21.0614,"52.2387, 21.0614",27
1055,03-966,Praga-Południe,ul. Afrykańska,52.2256,21.0711,"52.2256, 21.0711",27
1056,03-977,Praga-Południe,ul. Algierska,52.2233,21.0756,"52.2233, 21.0756",27
1057,03-972,Praga-Południe,ul. Alzacka,52.2254,21.0651,"52.2254, 21.0651",27
1058,04-367,Praga-Południe,ul. Apteczna,52.2465,21.081999999999997,"52.2465, 21.081999999999997",25
1059,03-952,Praga-Południe,ul. Argentyńska,52.2269,21.0619,"52.2269, 21.0619",27
1060,03-978,Praga-Południe,ul. Ateńska,52.2242,21.0663,"52.2242, 21.0663",27
1061,03-982,Praga-Południe,ul. Awionetki RWD,52.225,21.094,"52.225, 21.094",25
1062,04-223,Praga-Południe,ul. B. Kicińskiego,52.2373,21.125999999999998,"52.2373, 21.125999999999998",8
1063,03-963,Praga-Południe,ul. Bajońska,52.2256,21.0579,"52.2256, 21.0579",27
1064,04-222,Praga-Południe,ul. Bakaliowa,52.2377,21.1267,"52.2377, 21.1267",8
1065,04-339,Praga-Południe,ul. Barwnicza,52.2496,21.1028,"52.2496, 21.1028",24
1066,03-904,Praga-Południe,ul. Berezyńska,52.2361,21.0503,"52.2361, 21.0503",27
1067,03-908,Praga-Południe,ul. Berezyńska,52.2371,21.054000000000002,"52.2371, 21.054000000000002",27
1068,03-976,Praga-Południe,ul. Berneńska,52.2234,21.0637,"52.2234, 21.0637",27
1069,04-287,Praga-Południe,ul. Beskidzka,52.2424,21.116999999999997,"52.2424, 21.116999999999997",24
1070,04-063,Praga-Południe,ul. Białowieska,52.2381,21.0917,"52.2381, 21.0917",25
1071,04-303,Praga-Południe,ul. Biłgorajska,52.2452,21.1121,"52.2452, 21.1121",24
1072,04-216,Praga-Południe,ul. Biskupia,52.2398,21.1218,"52.2398, 21.1218",8
1073,04-304,Praga-Południe,ul. Bitwy Grochowskiej,52.243,21.1105,"52.243, 21.1105",24
1074,03-804,Praga-Południe,ul. Bliska,52.2493,21.0565,"52.2493, 21.0565",27
1075,04-309,Praga-Południe,ul. Boremlowska,52.2467,21.1094,"52.2467, 21.1094",24
1076,04-321,Praga-Południe,ul. Boremlowska,52.2479,21.1046,"52.2479, 21.1046",24
1077,04-338,Praga-Południe,ul. Boremlowska,52.2487,21.1018,"52.2487, 21.1018",24
1078,04-347,Praga-Południe,ul. Boremlowska,52.2494,21.0996,"52.2494, 21.0996",24
1079,04-044,Praga-Południe,ul. Bracławska,52.2324,21.0786,"52.2324, 21.0786",25
1080,03-946,Praga-Południe,ul. Brazylijska,52.2309,21.0647,"52.2309, 21.0647",27
1081,04-946,Praga-Południe,ul. Brazylijska,52.161,21.2247,"52.161, 21.2247",2
1082,03-973,Praga-Południe,ul. Brukselska,52.2247,21.0636,"52.2247, 21.0636",27
1083,03-984,Praga-Południe,ul. Brygady Pościgowej,52.2185,21.1106,"52.2185, 21.1106",40
1084,04-119,Praga-Południe,ul. Budrysów,52.2369,21.0917,"52.2369, 21.0917",25
1085,04-092,Praga-Południe,ul. Budrysów,52.2389,21.09,"52.2389, 21.09",25
1086,03-971,Praga-Południe,ul. Bułgarska,52.2263,21.0624,"52.2263, 21.0624",27
1087,04-047,Praga-Południe,ul. Busolowa,52.2316,21.0828,"52.2316, 21.0828",25
1088,04-310,Praga-Południe,ul. Byczyńska,52.2474,21.1078,"52.2474, 21.1078",24
1089,04-320,Praga-Południe,ul. Chłodnicza,52.2483,21.105,"52.2483, 21.105",24
1090,03-826,Praga-Południe,ul. Chodakowska,52.2491,21.0672,"52.2491, 21.0672",27
1091,03-815,Praga-Południe,ul. Chodakowska,52.2492,21.0663,"52.2492, 21.0663",27
1092,03-816,Praga-Południe,ul. Chodakowska,52.2519,21.0659,"52.2519, 21.0659",27
1093,04-068,Praga-Południe,ul. Chroszczewska,52.2419,21.0818,"52.2419, 21.0818",25
1094,04-214,Praga-Południe,ul. Cukrownicza,52.2411,21.124000000000002,"52.2411, 21.124000000000002",8
1095,04-060,Praga-Południe,ul. Cyraneczki,52.2414,21.079,"52.2414, 21.079",25
1096,04-066,Praga-Południe,ul. Czapelska,52.2419,21.0847,"52.2419, 21.0847",25
1097,04-081,Praga-Południe,ul. Czapelska,52.2433,21.0875,"52.2433, 21.0875",25
1098,04-218,Praga-Południe,ul. Czechowicka,52.2375,21.1237,"52.2375, 21.1237",8
1099,03-902,Praga-Południe,ul. Czeska,52.2358,21.0495,"52.2358, 21.0495",27
1100,04-091,Praga-Południe,ul. Darłowska,52.2386,21.0873,"52.2386, 21.0873",25
1101,04-354,Praga-Południe,ul. Daszowska,52.2457,21.0948,"52.2457, 21.0948",25
1102,03-932,Praga-Południe,ul. Dąbrowiecka,52.2328,21.051,"52.2328, 21.051",27
1103,03-909,Praga-Południe,ul. Dąbrówki,52.2362,21.0558,"52.2362, 21.0558",27
1104,04-187,Praga-Południe,ul. Dęblińska,52.2376,21.1146,"52.2376, 21.1146",24
1105,04-308,Praga-Południe,ul. Dęby,52.2474,21.1093,"52.2474, 21.1093",24
1106,04-003,Praga-Południe,ul. Dobrowoja,52.2448,21.0798,"52.2448, 21.0798",25
1107,03-809,Praga-Południe,ul. Drewnicka,52.2487,21.0647,"52.2487, 21.0647",27
1108,03-969,Praga-Południe,ul. Drezdeńska,52.2273,21.0659,"52.2273, 21.0659",27
1109,04-331,Praga-Południe,ul. Dubieńska,52.2452,21.0988,"52.2452, 21.0988",24
1110,04-317,Praga-Południe,ul. Dudziarska,52.2571,21.1019,"52.2571, 21.1019",24
1111,04-292,Praga-Południe,ul. Dynowska,52.245,21.1168,"52.245, 21.1168",24
1112,03-907,Praga-Południe,ul. Elsterska,52.2373,21.0542,"52.2373, 21.0542",27
1113,03-903,Praga-Południe,ul. Estońska,52.2367,21.0496,"52.2367, 21.0496",27
1114,03-980,Praga-Południe,ul. F. Znanieckiego,52.2258,21.1041,"52.2258, 21.1041",40
1115,04-045,Praga-Południe,ul. F. Żymirskiego,52.2319,21.0816,"52.2319, 21.0816",25
1116,04-116,Praga-Południe,ul. Filomatów,52.2377,21.0948,"52.2377, 21.0948",25
1117,03-906,Praga-Południe,ul. Francuska,52.2332,21.0548,"52.2332, 21.0548",27
1118,03-905,Praga-Południe,ul. Francuska,52.2361,21.053,"52.2361, 21.053",27
1119,04-057,Praga-Południe,ul. Fundamentowa,52.2393,21.0822,"52.2393, 21.0822",25
1120,04-078,Praga-Południe,ul. G. Garibaldiego,52.2436,21.0829,"52.2436, 21.0829",25
1121,04-356,Praga-Południe,ul. Garwolińska,52.2455,21.0908,"52.2455, 21.0908",25
1122,04-348,Praga-Południe,ul. Garwolińska,52.2493,21.0929,"52.2493, 21.0929",24
1123,04-350,Praga-Południe,ul. Garwolińska,52.246,21.0918,"52.246, 21.0918",25
1124,04-137,Praga-Południe,ul. Gdecka,52.2405,21.1009,"52.2405, 21.1009",24
1125,04-120,Praga-Południe,ul. Gedymina,52.2369,21.0936,"52.2369, 21.0936",25
1126,04-125,Praga-Południe,ul. gen. A. E. Fieldorfa „Nila”,52.2337,21.0966,"52.2337, 21.0966",25
1127,03-940,Praga-Południe,ul. Genewska,52.2281,21.0551,"52.2281, 21.0551",27
1128,03-807,Praga-Południe,ul. Głucha,52.2481,21.0606,"52.2481, 21.0606",27
1129,03-810,Praga-Południe,ul. Gocławska,52.2482,21.0633,"52.2482, 21.0633",27
1130,04-212,Praga-Południe,ul. Gorzelnicza,52.2402,21.1263,"52.2402, 21.1263",8
1131,04-062,Praga-Południe,ul. Grenadierów,52.2385,21.0858,"52.2385, 21.0858",25
1132,04-052,Praga-Południe,ul. Grenadierów,52.2385,21.0848,"52.2385, 21.0848",25
1133,04-073,Praga-Południe,ul. Grenadierów,52.2422,21.0797,"52.2422, 21.0797",25
1134,04-007,Praga-Południe,ul. Grenadierów,52.2444,21.0763,"52.2444, 21.0763",25
1135,04-186,Praga-Południe,ul. Grochowska,52.2393,21.1124,"52.2393, 21.1124",24
1136,04-217,Praga-Południe,ul. Grochowska,52.2368,21.1221,"52.2368, 21.1221",8
1137,04-301,Praga-Południe,ul. Grochowska,52.2417,21.1068,"52.2417, 21.1068",24
1138,04-172,Praga-Południe,ul. Grochowska,52.2412,21.1068,"52.2412, 21.1068",24
1139,04-148,Praga-Południe,ul. Grochowska,52.2418,21.1037,"52.2418, 21.1037",24
1140,04-139,Praga-Południe,ul. Grochowska,52.2426,21.0996,"52.2426, 21.0996",24
1141,04-328,Praga-Południe,ul. Grochowska,52.2431,21.1002,"52.2431, 21.1002",24
1142,04-329,Praga-Południe,ul. Grochowska,52.2436,21.0976,"52.2436, 21.0976",24
1143,04-111,Praga-Południe,ul. Grochowska,52.2437,21.094,"52.2437, 21.094",25
1144,04-357,Praga-Południe,ul. Grochowska,52.245,21.0907,"52.245, 21.0907",25
1145,04-077,Praga-Południe,ul. Grochowska,52.245,21.0829,"52.245, 21.0829",25
1146,04-368,Praga-Południe,ul. Grochowska,52.2458,21.0816,"52.2458, 21.0816",25
1147,04-001,Praga-Południe,ul. Grochowska,52.2454,21.079,"52.2454, 21.079",25
1148,04-398,Praga-Południe,ul. Grochowska,52.2459,21.0782,"52.2459, 21.0782",25
1149,03-844,Praga-Południe,ul. Grochowska,52.2458,21.0721,"52.2458, 21.0721",27
1150,03-849,Praga-Południe,ul. Grochowska,52.2467,21.0708,"52.2467, 21.0708",27
1151,03-841,Praga-Południe,ul. Grochowska,52.2466,21.0672,"52.2466, 21.0672",27
1152,03-842,Praga-Południe,ul. Grochowska,52.2461,21.0679,"52.2461, 21.0679",27
1153,03-840,Praga-Południe,ul. Grochowska,52.2468,21.0632,"52.2468, 21.0632",27
1154,03-823,Praga-Południe,ul. Grochowska,52.2462,21.0625,"52.2462, 21.0625",27
1155,03-839,Praga-Południe,ul. Grochowska,52.247,21.0607,"52.247, 21.0607",27
1156,03-838,Praga-Południe,ul. Grochowska,52.2472,21.057,"52.2472, 21.057",27
1157,03-822,Praga-Południe,ul. Grochowska,52.2467,21.0561,"52.2467, 21.0561",27
1158,04-282,Praga-Południe,ul. Grochowska,52.2397,21.1159,"52.2397, 21.1159",24
1159,03-814,Praga-Południe,ul. Groszowicka,52.248000000000005,21.0684,"52.248000000000005, 21.0684",27
1160,04-305,Praga-Południe,ul. Hetmańska,52.2449,21.1098,"52.2449, 21.1098",24
1161,03-925,Praga-Południe,ul. Holenderska,52.2369,21.0615,"52.2369, 21.0615",27
1162,04-146,Praga-Południe,ul. I. Domeyki,52.244,21.1075,"52.244, 21.1075",24
1163,04-079,Praga-Południe,ul. I. Kruszewskiego,52.2416,21.0862,"52.2416, 21.0862",25
1164,04-086,Praga-Południe,ul. I. Kruszewskiego,52.2407,21.0872,"52.2407, 21.0872",25
1165,04-087,Praga-Południe,ul. Igańska,52.2408,21.0903,"52.2408, 21.0903",25
1166,04-083,Praga-Południe,ul. Igańska,52.2429,21.0888,"52.2429, 21.0888",25
1167,03-957,Praga-Południe,ul. Indyjska,52.227,21.0628,"52.227, 21.0628",27
1168,04-314,Praga-Południe,ul. J. Chłopickiego,52.2472,21.1064,"52.2472, 21.1064",24
1169,04-275,Praga-Południe,ul. J. Chłopickiego,52.2555,21.1168,"52.2555, 21.1168",8
1170,04-378,Praga-Południe,ul. J. Dwernickiego,52.2507,21.0831,"52.2507, 21.0831",25
1171,04-377,Praga-Południe,ul. J. Dwernickiego,52.2502,21.0814,"52.2502, 21.0814",25
1172,04-391,Praga-Południe,ul. J. Dwernickiego,52.2507,21.0803,"52.2507, 21.0803",25
1173,04-396,Praga-Południe,ul. J. Dwernickiego,52.25,21.0771,"52.25, 21.0771",25
1174,03-928,Praga-Południe,ul. J. Styki,52.2334,21.0569,"52.2334, 21.0569",27
1175,04-145,Praga-Południe,ul. J. Zaliwskiego,52.2432,21.1059,"52.2432, 21.1059",24
1176,03-801,Praga-Południe,ul. J. Zamoyskiego,52.2476,21.0465,"52.2476, 21.0465",26
1177,02-801,Praga-Południe,ul. J. Zamoyskiego,52.1453,21.0188,"52.1453, 21.0188",43
1178,04-171,Praga-Południe,ul. Jarocińska,52.2395,21.1059,"52.2395, 21.1059",24
1179,04-156,Praga-Południe,ul. Jarocińska,52.24,21.1036,"52.24, 21.1036",24
1180,04-204,Praga-Południe,ul. Jordanowska,52.2376,21.1278,"52.2376, 21.1278",8
1181,03-805,Praga-Południe,ul. Kamionkowska,52.2477,21.061999999999998,"52.2477, 21.061999999999998",27
1182,03-812,Praga-Południe,ul. Kamionkowska,52.2474,21.0676,"52.2474, 21.0676",27
1183,04-046,Praga-Południe,ul. Kapelanów AK,52.2297,21.0845,"52.2297, 21.0845",25
1184,04-112,Praga-Południe,ul. Karczewska,52.2414,21.0948,"52.2414, 21.0948",25
1185,04-042,Praga-Południe,ul. kard. A. Kakowskiego,52.2313,21.0864,"52.2313, 21.0864",25
1186,04-167,Praga-Południe,ul. Kawcza,52.2382,21.1034,"52.2382, 21.1034",24
1187,04-152,Praga-Południe,ul. Kawcza,52.24,21.1045,"52.24, 21.1045",24
1188,04-154,Praga-Południe,ul. Kawcza,52.2399,21.1044,"52.2399, 21.1044",24
1189,04-019,Praga-Południe,ul. Kinowa,52.2386,21.0758,"52.2386, 21.0758",25
1190,04-017,Praga-Południe,ul. Kinowa,52.2415,21.0727,"52.2415, 21.0727",25
1191,04-324,Praga-Południe,ul. Kiprów,52.246,21.1025,"52.246, 21.1025",24
1192,04-334,Praga-Południe,ul. Kiprów,52.2466,21.0999,"52.2466, 21.0999",24
1193,04-072,Praga-Południe,ul. Kirasjerów,52.2428,21.0806,"52.2428, 21.0806",25
1194,04-359,Praga-Południe,ul. Kobielska,52.2471,21.0873,"52.2471, 21.0873",25
1195,03-835,Praga-Południe,ul. Kobielska,52.248000000000005,21.0735,"52.248000000000005, 21.0735",27
1196,04-371,Praga-Południe,ul. Kobielska,52.2471,21.0832,"52.2471, 21.0832",25
1197,04-389,Praga-Południe,ul. Kobielska,52.2476,21.0832,"52.2476, 21.0832",25
1198,03-371,Praga-Południe,ul. Kobielska,52.2715,21.0444,"52.2715, 21.0444",26
1199,04-370,Praga-Południe,ul. Kobielska,52.2476,21.0809,"52.2476, 21.0809",25
1200,04-372,Praga-Południe,ul. Kobielska,52.2477,21.0781,"52.2477, 21.0781",25
1201,04-191,Praga-Południe,ul. Kokoryczki,52.2345,21.1232,"52.2345, 21.1232",8
1202,04-161,Praga-Południe,ul. Komorska,52.2387,21.101999999999997,"52.2387, 21.101999999999997",24
1203,04-149,Praga-Południe,ul. Komorska,52.2413,21.1033,"52.2413, 21.1033",24
1204,04-048,Praga-Południe,ul. Kompasowa,52.2317,21.0839,"52.2317, 21.0839",25
1205,04-285,Praga-Południe,ul. Koprzywiańska,52.24100000000001,21.1193,"52.24100000000001, 21.1193",8
1206,04-085,Praga-Południe,ul. Korytnicka,52.2415,21.088,"52.2415, 21.088",25
1207,04-109,Praga-Południe,ul. Korytnicka,52.2432,21.0915,"52.2432, 21.0915",25
1208,04-206,Praga-Południe,ul. Kresowa,52.2388,21.1306,"52.2388, 21.1306",8
1209,03-934,Praga-Południe,ul. Kryniczna,52.2292,21.0547,"52.2292, 21.0547",27
1210,04-082,Praga-Południe,ul. Krypska,52.2423,21.0873,"52.2423, 21.0873",25
1211,04-065,Praga-Południe,ul. Krypska,52.2415,21.0864,"52.2415, 21.0864",25
1212,04-105,Praga-Południe,ul. Krypska,52.2441,21.0916,"52.2441, 21.0916",25
1213,03-949,Praga-Południe,ul. Kubańska,52.2296,21.0592,"52.2296, 21.0592",27
1214,04-090,Praga-Południe,ul. Kutnowska,52.2395,21.0895,"52.2395, 21.0895",25
1215,04-294,Praga-Południe,ul. Kwatery Głównej,52.2435,21.1139,"52.2435, 21.1139",24
1216,04-373,Praga-Południe,ul. L. Kickiego,52.2472,21.0796,"52.2472, 21.0796",25
1217,04-397,Praga-Południe,ul. L. Kickiego,52.2483,21.08,"52.2483, 21.08",25
1218,04-390,Praga-Południe,ul. L. Kickiego,52.2517,21.0798,"52.2517, 21.0798",25
1219,04-369,Praga-Południe,ul. L. Kickiego,52.2469,21.0801,"52.2469, 21.0801",25
1220,04-361,Praga-Południe,ul. L. M. Paca,52.2487,21.0866,"52.2487, 21.0866",25
1221,04-386,Praga-Południe,ul. L. M. Paca,52.2494,21.083000000000002,"52.2494, 21.083000000000002",25
1222,04-376,Praga-Południe,ul. L. M. Paca,52.248999999999995,21.0796,"52.248999999999995, 21.0796",25
1223,04-379,Praga-Południe,ul. L. Mycielskiego,52.2518,21.0821,"52.2518, 21.0821",25
1224,04-387,Praga-Południe,ul. L. Mycielskiego,52.2481,21.0818,"52.2481, 21.0818",25
1225,04-050,Praga-Południe,ul. Latyczowska,52.2328,21.0849,"52.2328, 21.0849",25
1226,04-049,Praga-Południe,ul. Lechitów,52.2322,21.0841,"52.2322, 21.0841",25
1227,04-284,Praga-Południe,ul. Liwiecka,52.2416,21.1181,"52.2416, 21.1181",24
1228,03-921,Praga-Południe,ul. Londyńska,52.2369,21.063000000000002,"52.2369, 21.063000000000002",27
1229,03-974,Praga-Południe,ul. Lotaryńska,52.2242,21.0624,"52.2242, 21.0624",27
1230,03-970,Praga-Południe,ul. Lotaryńska,52.2257,21.0634,"52.2257, 21.0634",27
1231,04-192,Praga-Południe,ul. Lotnicza,52.2342,21.1241,"52.2342, 21.1241",8
1232,04-326,Praga-Południe,ul. Lubartowska,52.2446,21.1011,"52.2446, 21.1011",24
1233,03-802,Praga-Południe,ul. Lubelska,52.2492,21.0501,"52.2492, 21.0501",26
1234,04-002,Praga-Południe,ul. Lubomira,52.2448,21.076999999999998,"52.2448, 21.076999999999998",25
1235,04-210,Praga-Południe,ul. Ludwisarska,52.2405,21.1248,"52.2405, 21.1248",8
1236,04-316,Praga-Południe,ul. Łaziebna,52.2549,21.112,"52.2549, 21.112",8
1237,03-918,Praga-Południe,ul. Łotewska,52.2358,21.0473,"52.2358, 21.0473",27
1238,04-123,Praga-Południe,ul. Łukiska,52.2353,21.0963,"52.2353, 21.0963",25
1239,04-113,Praga-Południe,ul. Łukowska,52.2368,21.1107,"52.2368, 21.1107",24
1240,04-133,Praga-Południe,ul. Łukowska,52.2379,21.1008,"52.2379, 21.1008",24
1241,04-288,Praga-Południe,ul. Łysogórska,52.2418,21.1159,"52.2418, 21.1159",24
1242,04-088,Praga-Południe,ul. Majdańska,52.2403,21.0866,"52.2403, 21.0866",25
1243,04-110,Praga-Południe,ul. Majdańska,52.2425,21.0917,"52.2425, 21.0917",25
1244,04-319,Praga-Południe,ul. Makowska,52.2493,21.1071,"52.2493, 21.1071",24
1245,04-208,Praga-Południe,ul. Makowska,52.2408,21.1265,"52.2408, 21.1265",8
1246,04-341,Praga-Południe,ul. Makowska,52.25,21.1043,"52.25, 21.1043",24
1247,04-344,Praga-Południe,ul. Makowska,52.2525,21.096,"52.2525, 21.096",24
1248,04-280,Praga-Południe,ul. Makowska,52.2454,21.1164,"52.2454, 21.1164",24
1249,04-307,Praga-Południe,ul. Makowska,52.2483,21.1105,"52.2483, 21.1105",24
1250,04-202,Praga-Południe,ul. Marsa,52.2362,21.1289,"52.2362, 21.1289",8
1251,03-948,Praga-Południe,ul. Meksykańska,52.2305,21.0598,"52.2305, 21.0598",27
1252,04-215,Praga-Południe,ul. Metalowców,52.2415,21.1225,"52.2415, 21.1225",8
1253,04-069,Praga-Południe,ul. Męcińska,52.2421,21.0844,"52.2421, 21.0844",25
1254,04-080,Praga-Południe,ul. Męcińska,52.2434,21.0867,"52.2434, 21.0867",25
1255,04-041,Praga-Południe,ul. Międzyborska,52.2331,21.0861,"52.2331, 21.0861",25
1256,04-010,Praga-Południe,ul. Międzyborska,52.2425,21.0768,"52.2425, 21.0768",25
1257,04-013,Praga-Południe,ul. Międzyborska,52.2433,21.0756,"52.2433, 21.0756",25
1258,04-038,Praga-Południe,ul. Międzyborska,52.2369,21.0818,"52.2369, 21.0818",25
1259,04-040,Praga-Południe,ul. Międzyborska,52.2376,21.0817,"52.2376, 21.0817",25
1260,04-027,Praga-Południe,ul. Międzyborska,52.2389,21.0802,"52.2389, 21.0802",25
1261,04-024,Praga-Południe,ul. Międzyborska,52.2397,21.0796,"52.2397, 21.0796",25
1262,04-025,Praga-Południe,ul. Międzyborska,52.2406,21.0782,"52.2406, 21.0782",25
1263,03-939,Praga-Południe,ul. Międzynarodowa,52.2312,21.0673,"52.2312, 21.0673",27
1264,03-922,Praga-Południe,ul. Międzynarodowa,52.2345,21.0666,"52.2345, 21.0666",27
1265,03-806,Praga-Południe,ul. Mińska,52.2479,21.0572,"52.2479, 21.0572",27
1266,03-808,Praga-Południe,ul. Mińska,52.2488,21.061,"52.2488, 21.061",27
1267,03-828,Praga-Południe,ul. Mińska,52.2504,21.0668,"52.2504, 21.0668",27
1268,04-136,Praga-Południe,ul. Mlądzka,52.2402,21.0988,"52.2402, 21.0988",24
1269,04-004,Praga-Południe,ul. Modrzewiowa,52.2449,21.0813,"52.2449, 21.0813",25
1270,04-224,Praga-Południe,ul. Morgowa,52.2361,21.1276,"52.2361, 21.1276",8
1271,04-035,Praga-Południe,ul. Motorowa,52.2338,21.0813,"52.2338, 21.0813",25
1272,04-203,Praga-Południe,ul. Murmańska,52.2368,21.1284,"52.2368, 21.1284",8
1273,04-205,Praga-Południe,ul. Naddnieprzańska,52.236999999999995,21.1316,"52.236999999999995, 21.1316",8
1274,04-343,Praga-Południe,ul. Nasielska,52.2479,21.0993,"52.2479, 21.0993",24
1275,04-336,Praga-Południe,ul. Nasielska,52.247,21.0989,"52.247, 21.0989",24
1276,04-342,Praga-Południe,ul. Nasielska,52.2501,21.1016,"52.2501, 21.1016",24
1277,03-924,Praga-Południe,ul. Niekłańska,52.2356,21.0608,"52.2356, 21.0608",27
1278,03-915,Praga-Południe,ul. Niekłańska,52.238,21.0593,"52.238, 21.0593",27
1279,03-911,Praga-Południe,ul. Niekłańska,52.2391,21.0598,"52.2391, 21.0598",27
1280,04-362,Praga-Południe,ul. Nizinna,52.2495,21.0868,"52.2495, 21.0868",25
1281,03-821,Praga-Południe,ul. Nowińska,52.2511,21.0602,"52.2511, 21.0602",27
1282,03-931,Praga-Południe,ul. Nurska,52.2327,21.0536,"52.2327, 21.0536",27
1283,04-322,Praga-Południe,ul. Obarowska,52.2473,21.1039,"52.2473, 21.1039",24
1284,04-337,Praga-Południe,ul. Obarowska,52.2481,21.1012,"52.2481, 21.1012",24
1285,03-933,Praga-Południe,ul. Obrońców,52.2328,21.0514,"52.2328, 21.0514",27
1286,03-927,Praga-Południe,ul. Obrońców,52.2335,21.0569,"52.2335, 21.0569",27
1287,04-131,Praga-Południe,ul. Okuniewska,52.2396,21.0966,"52.2396, 21.0966",24
1288,04-281,Praga-Południe,ul. Olszynki Grochowskiej,52.2411,21.1204,"52.2411, 21.1204",8
1289,04-128,Praga-Południe,ul. Omulewska,52.2408,21.0957,"52.2408, 21.0957",25
1290,04-039,Praga-Południe,ul. Opinogórska,52.2329,21.0799,"52.2329, 21.0799",25
1291,04-211,Praga-Południe,ul. Osada Ojców,52.2378,21.1249,"52.2378, 21.1249",8
1292,04-173,Praga-Południe,ul. Osiecka,52.2388,21.1052,"52.2388, 21.1052",24
1293,04-302,Praga-Południe,ul. Osowska,52.2438,21.1092,"52.2438, 21.1092",24
1294,04-312,Praga-Południe,ul. Osowska,52.2445,21.1065,"52.2445, 21.1065",24
1295,04-325,Praga-Południe,ul. Osowska,52.2454,21.1025,"52.2454, 21.1025",24
1296,04-332,Praga-Południe,ul. Osowska,52.2461,21.0994,"52.2461, 21.0994",24
1297,04-351,Praga-Południe,ul. Osowska,52.2469,21.0942,"52.2469, 21.0942",25
1298,04-118,Praga-Południe,ul. Ostrobramska,52.2356,21.0936,"52.2356, 21.0936",25
1299,04-026,Praga-Południe,ul. Ostrobramska,52.2363,21.0823,"52.2363, 21.0823",25
1300,04-193,Praga-Południe,ul. Ostrobramska,52.2331,21.1188,"52.2331, 21.1188",8
1301,04-175,Praga-Południe,ul. Ostrobramska,52.2332,21.1081,"52.2332, 21.1081",24
1302,04-174,Praga-Południe,ul. Ostrobramska,52.238,21.1063,"52.238, 21.1063",24
1303,04-163,Praga-Południe,ul. Ostrobramska,52.2349,21.1013,"52.2349, 21.1013",24
1304,04-102,Praga-Południe,ul. Ostrołęcka,52.2427,21.0912,"52.2427, 21.0912",25
1305,03-825,Praga-Południe,ul. Owsiana,52.248999999999995,21.0685,"52.248999999999995, 21.0685",27
1306,04-219,Praga-Południe,ul. Pabianicka,52.2396,21.1249,"52.2396, 21.1249",8
1307,03-954,Praga-Południe,ul. Paryska,52.2266,21.0594,"52.2266, 21.0594",27
1308,03-935,Praga-Południe,ul. Paryska,52.2289,21.058000000000003,"52.2289, 21.058000000000003",27
1309,03-945,Praga-Południe,ul. Paryska,52.2293,21.057,"52.2293, 21.057",27
1310,04-164,Praga-Południe,ul. Perkuna,52.2322,21.104,"52.2322, 21.104",24
1311,04-180,Praga-Południe,ul. Perkuna,52.2328,21.1029,"52.2328, 21.1029",24
1312,04-124,Praga-Południe,ul. Perkuna,52.2333,21.0997,"52.2333, 21.0997",24
1313,04-501,Praga-Południe,ul. Płowiecka,52.2311,21.1348,"52.2311, 21.1348",8
1314,04-291,Praga-Południe,ul. Podolska,52.2424,21.1146,"52.2424, 21.1146",24
1315,03-833,Praga-Południe,ul. Podskarbińska,52.2487,21.0752,"52.2487, 21.0752",27
1316,03-831,Praga-Południe,ul. Podskarbińska,52.2508,21.0741,"52.2508, 21.0741",27
1317,03-829,Praga-Południe,ul. Podskarbińska,52.2547,21.0739,"52.2547, 21.0739",27
1318,03-834,Praga-Południe,ul. Podskarbińska,52.248999999999995,21.0737,"52.248999999999995, 21.0737",27
1319,04-051,Praga-Południe,ul. Poligonowa,52.2329,21.0843,"52.2329, 21.0843",25
1320,04-360,Praga-Południe,ul. Prochowa,52.248000000000005,21.0865,"52.248000000000005, 21.0865",25
1321,04-388,Praga-Południe,ul. Prochowa,52.2481,21.0835,"52.2481, 21.0835",25
